[
  {
    "id": 0,
    "search_name_en": "Abin - Efrin - Afrin - Afrin --- (((0)))",
    "search_name_ar_short": "ابين- عفرين (((0)))",
    "search_name_ar": "ابين- عفرين - مركز عفرين - عفرين --- (((0)))",
    "closest_geonames_post_code": "C1353",
    "old_sa_name": "",
    "lat": 36.46697414,
    "lon": 36.99295155,
    "sa_loc_only": "FALSE"
  },
  {
    "id": 1,
    "search_name_en": "Afrin (Afrin) - Afrin - Afrin --- (((1)))",
    "search_name_ar_short": "عفرين (((1)))",
    "search_name_ar": "عفرين - مركز عفرين - مركز عفرين - عفرين --- (((1)))",
    "closest_geonames_post_code": "C1366",
    "old_sa_name": "",
    "lat": 36.51109375,
    "lon": 36.86552262,
    "sa_loc_only": "FALSE"
  },
  {
    "id": 2,
    "search_name_en": "Bablit - Afrin - Afrin --- (((2)))",
    "search_name_ar_short": "بابليت (((2)))",
    "search_name_ar": "بابليت - مركز عفرين - عفرين --- (((2)))",
    "closest_geonames_post_code": "C1351",
    "old_sa_name": "",
    "lat": 36.48273334,
    "lon": 36.82774783,
    "sa_loc_only": "FALSE"
  },
  {
    "id": 3,
    "search_name_en": "Baee - Afrin - Afrin --- (((3)))",
    "search_name_ar_short": "باعي (((3)))",
    "search_name_ar": "باعي - مركز عفرين - عفرين --- (((3)))",
    "closest_geonames_post_code": "C1373",
    "old_sa_name": "",
    "lat": 36.35993095,
    "lon": 36.86621348,
    "sa_loc_only": "FALSE"
  },
  {
    "id": 4,
    "search_name_en": "Baselhaya - Afrin - Afrin --- (((4)))",
    "search_name_ar_short": "باصلحايا (((4)))",
    "search_name_ar": "باصلحايا - مركز عفرين - عفرين --- (((4)))",
    "closest_geonames_post_code": "C1371",
    "old_sa_name": "",
    "lat": 36.46075726,
    "lon": 36.95353985,
    "sa_loc_only": "FALSE"
  },
  {
    "id": 5,
    "search_name_en": "Basufan - Afrin - Afrin --- (((5)))",
    "search_name_ar_short": "باصوفان (((5)))",
    "search_name_ar": "باصوفان - مركز عفرين - عفرين --- (((5)))",
    "closest_geonames_post_code": "C1374",
    "old_sa_name": "",
    "lat": 36.34107916,
    "lon": 36.87362245,
    "sa_loc_only": "FALSE"
  },
  {
    "id": 6,
    "search_name_en": "Basuta - Afrin - Afrin --- (((6)))",
    "search_name_ar_short": "باسوطة (((6)))",
    "search_name_ar": "باسوطة - مركز عفرين - عفرين --- (((6)))",
    "closest_geonames_post_code": "C1376",
    "old_sa_name": "",
    "lat": 36.43194587,
    "lon": 36.87097268,
    "sa_loc_only": "FALSE"
  },
  {
    "id": 7,
    "search_name_en": "Brad - Afrin - Afrin --- (((7)))",
    "search_name_ar_short": "براد (((7)))",
    "search_name_ar": "براد - مركز عفرين - عفرين --- (((7)))",
    "closest_geonames_post_code": "C1375",
    "old_sa_name": "",
    "lat": 36.38592927,
    "lon": 36.89900436,
    "sa_loc_only": "FALSE"
  },
  {
    "id": 8,
    "search_name_en": "Bseileh - Afrin - Afrin --- (((8)))",
    "search_name_ar_short": "البصلية (((8)))",
    "search_name_ar": "البصلية - مركز عفرين - عفرين --- (((8)))",
    "closest_geonames_post_code": "C1369",
    "old_sa_name": "",
    "lat": 36.4361686,
    "lon": 36.92804786,
    "sa_loc_only": "FALSE"
  },
  {
    "id": 9,
    "search_name_en": "Bteita - Afrin - Afrin --- (((9)))",
    "search_name_ar_short": "بتيتة (((9)))",
    "search_name_ar": "بتيتة - مركز عفرين - عفرين --- (((9)))",
    "closest_geonames_post_code": "C1372",
    "old_sa_name": "",
    "lat": 36.46089569,
    "lon": 36.83632517,
    "sa_loc_only": "FALSE"
  },
  {
    "id": 10,
    "search_name_en": "Burj Abdallah - Afrin - Afrin --- (((10)))",
    "search_name_ar_short": "برج عبد الله (((10)))",
    "search_name_ar": "برج عبد الله - مركز عفرين - عفرين --- (((10)))",
    "closest_geonames_post_code": "C1377",
    "old_sa_name": "حلب : برج عبدالو",
    "lat": 36.41178045,
    "lon": 36.86256388,
    "sa_loc_only": "FALSE"
  },
  {
    "id": 11,
    "search_name_en": "Burj Haydar - Afrin - Afrin --- (((11)))",
    "search_name_ar_short": "برج حيدر (((11)))",
    "search_name_ar": "برج حيدر - مركز عفرين - عفرين --- (((11)))",
    "closest_geonames_post_code": "C1354",
    "old_sa_name": "",
    "lat": 36.34296827,
    "lon": 36.90285365,
    "sa_loc_only": "FALSE"
  },
  {
    "id": 12,
    "search_name_en": "Ein Dara - Afrin - Afrin --- (((12)))",
    "search_name_ar_short": "عين دارة (((12)))",
    "search_name_ar": "عين دارة - مركز عفرين - عفرين --- (((12)))",
    "closest_geonames_post_code": "C1370",
    "old_sa_name": "",
    "lat": 36.4645466,
    "lon": 36.86609493,
    "sa_loc_only": "FALSE"
  },
  {
    "id": 13,
    "search_name_en": "Enab - Afrin - Afrin --- (((13)))",
    "search_name_ar_short": "اناب (((13)))",
    "search_name_ar": "اناب - مركز عفرين - عفرين --- (((13)))",
    "closest_geonames_post_code": "C1367",
    "old_sa_name": "",
    "lat": 36.51908652,
    "lon": 36.95431429,
    "sa_loc_only": "FALSE"
  },
  {
    "id": 14,
    "search_name_en": "Eskan - Afrin - Afrin --- (((14)))",
    "search_name_ar_short": "اسكان (((14)))",
    "search_name_ar": "اسكان - مركز عفرين - عفرين --- (((14)))",
    "closest_geonames_post_code": "C1352",
    "old_sa_name": "",
    "lat": 36.35349226,
    "lon": 36.80778481,
    "sa_loc_only": "FALSE"
  },
  {
    "id": 15,
    "search_name_en": "Fafertein - Afrin - Afrin --- (((15)))",
    "search_name_ar_short": "فافرتين (((15)))",
    "search_name_ar": "فافرتين - مركز عفرين - عفرين --- (((15)))",
    "closest_geonames_post_code": "C1383",
    "old_sa_name": "",
    "lat": 36.32019928,
    "lon": 36.90612709,
    "sa_loc_only": "FALSE"
  },
  {
    "id": 16,
    "search_name_en": "Ghazawiyet Afrin - Afrin - Afrin --- (((16)))",
    "search_name_ar_short": "غزاوية عفرين (((16)))",
    "search_name_ar": "غزاوية عفرين - مركز عفرين - عفرين --- (((16)))",
    "closest_geonames_post_code": "C1378",
    "old_sa_name": "",
    "lat": 36.37683951,
    "lon": 36.84168276,
    "sa_loc_only": "FALSE"
  },
  {
    "id": 17,
    "search_name_en": "Hawa - Afrin - Afrin --- (((17)))",
    "search_name_ar_short": "الهوى (((17)))",
    "search_name_ar": "الهوى - مركز عفرين - عفرين --- (((17)))",
    "closest_geonames_post_code": "C1362",
    "old_sa_name": "",
    "lat": 36.52321695,
    "lon": 36.9112091,
    "sa_loc_only": "FALSE"
  },
  {
    "id": 18,
    "search_name_en": "Jalbal - Afrin - Afrin --- (((18)))",
    "search_name_ar_short": "جلبل (((18)))",
    "search_name_ar": "جلبل - مركز عفرين - عفرين --- (((18)))",
    "closest_geonames_post_code": "C1360",
    "old_sa_name": "",
    "lat": 36.48438256,
    "lon": 36.9687015,
    "sa_loc_only": "FALSE"
  },
  {
    "id": 19,
    "search_name_en": "Kabashin - Afrin - Afrin --- (((19)))",
    "search_name_ar_short": "كباشين (((19)))",
    "search_name_ar": "كباشين - مركز عفرين - عفرين --- (((19)))",
    "closest_geonames_post_code": "C1380",
    "old_sa_name": "",
    "lat": 36.33230315,
    "lon": 36.91745812,
    "sa_loc_only": "FALSE"
  },
  {
    "id": 20,
    "search_name_en": "Kafir - Afrin - Afrin - Afrin --- (((20)))",
    "search_name_ar_short": "كفير (((20)))",
    "search_name_ar": "كفير - مركز عفرين - عفرين --- (((20)))",
    "closest_geonames_post_code": "C1390",
    "old_sa_name": "",
    "lat": 36.42146255,
    "lon": 36.85942746,
    "sa_loc_only": "FALSE"
  },
  {
    "id": 21,
    "search_name_en": "Kafr Batra - Afrin - Afrin --- (((21)))",
    "search_name_ar_short": "كفر بطرة (((21)))",
    "search_name_ar": "كفر بطرة - مركز عفرين - عفرين --- (((21)))",
    "closest_geonames_post_code": "C1388",
    "old_sa_name": "",
    "lat": 36.46297924,
    "lon": 36.81368988,
    "sa_loc_only": "FALSE"
  },
  {
    "id": 22,
    "search_name_en": "Kafr Zeid - Afrin - Afrin --- (((22)))",
    "search_name_ar_short": "كفر زيد (((22)))",
    "search_name_ar": "كفر زيد - مركز عفرين - عفرين --- (((22)))",
    "closest_geonames_post_code": "C1389",
    "old_sa_name": "",
    "lat": 36.4130528,
    "lon": 36.81091809,
    "sa_loc_only": "FALSE"
  },
  {
    "id": 23,
    "search_name_en": "Kafrmeez - Afrin - Afrin --- (((23)))",
    "search_name_ar_short": "كفرميز (((23)))",
    "search_name_ar": "كفرميز - مركز عفرين - عفرين --- (((23)))",
    "closest_geonames_post_code": "C6395",
    "old_sa_name": "",
    "lat": 36.55877022,
    "lon": 36.94190191,
    "sa_loc_only": "FALSE"
  },
  {
    "id": 24,
    "search_name_en": "Kafrshil - Afrin - Afrin --- (((24)))",
    "search_name_ar_short": "كفرشيل (((24)))",
    "search_name_ar": "كفرشيل - مركز عفرين - عفرين --- (((24)))",
    "closest_geonames_post_code": "C1385",
    "old_sa_name": "",
    "lat": 36.51050147,
    "lon": 36.83253538,
    "sa_loc_only": "FALSE"
  },
  {
    "id": 25,
    "search_name_en": "Kawkabeh (Afrin) - Afrin - Afrin --- (((25)))",
    "search_name_ar_short": "كوكبة (((25)))",
    "search_name_ar": "كوكبة - مركز عفرين - مركز عفرين - عفرين --- (((25)))",
    "closest_geonames_post_code": "C1381",
    "old_sa_name": "",
    "lat": 36.45173955,
    "lon": 36.83642154,
    "sa_loc_only": "FALSE"
  },
  {
    "id": 26,
    "search_name_en": "Khadraa - Afrin - Afrin --- (((26)))",
    "search_name_ar_short": "الخضراء (((26)))",
    "search_name_ar": "الخضراء - مركز عفرين - عفرين --- (((26)))",
    "closest_geonames_post_code": "C1365",
    "old_sa_name": "",
    "lat": 36.54104742,
    "lon": 36.79512061,
    "sa_loc_only": "FALSE"
  },
  {
    "id": 27,
    "search_name_en": "Khaldiyet Afrin - Afrin - Afrin --- (((27)))",
    "search_name_ar_short": "خالدية عفرين (((27)))",
    "search_name_ar": "خالدية عفرين - مركز عفرين - عفرين --- (((27)))",
    "closest_geonames_post_code": "C1364",
    "old_sa_name": "",
    "lat": 36.50575578,
    "lon": 36.924348,
    "sa_loc_only": "FALSE"
  },
  {
    "id": 28,
    "search_name_en": "Kimar - Afrin - Afrin --- (((28)))",
    "search_name_ar_short": "كيمار (((28)))",
    "search_name_ar": "كيمار - مركز عفرين - عفرين --- (((28)))",
    "closest_geonames_post_code": "C1382",
    "old_sa_name": "",
    "lat": 36.42373551,
    "lon": 36.8962222,
    "sa_loc_only": "FALSE"
  },
  {
    "id": 29,
    "search_name_en": "Marata (Afrin) - Afrin - Afrin --- (((29)))",
    "search_name_ar_short": "معراتة (((29)))",
    "search_name_ar": "معراتة - مركز عفرين - مركز عفرين - عفرين --- (((29)))",
    "closest_geonames_post_code": "C1384",
    "old_sa_name": "",
    "lat": 36.50037775,
    "lon": 36.80061716,
    "sa_loc_only": "FALSE"
  },
  {
    "id": 30,
    "search_name_en": "Mreimin Afrin - Afrin - Afrin --- (((30)))",
    "search_name_ar_short": "مريمين عفرين (((30)))",
    "search_name_ar": "مريمين عفرين - مركز عفرين - عفرين --- (((30)))",
    "closest_geonames_post_code": "C1386",
    "old_sa_name": "",
    "lat": 36.53043565,
    "lon": 36.94960187,
    "sa_loc_only": "FALSE"
  },
  {
    "id": 31,
    "search_name_en": "Muarset Khateeb - Afrin - Afrin --- (((31)))",
    "search_name_ar_short": "معرستة الخطيب (((31)))",
    "search_name_ar": "معرستة الخطيب - مركز عفرين - عفرين --- (((31)))",
    "closest_geonames_post_code": "C6394",
    "old_sa_name": "حلب : معرسته",
    "lat": 36.56055905,
    "lon": 36.9592496,
    "sa_loc_only": "FALSE"
  },
  {
    "id": 32,
    "search_name_en": "Nireh - Afrin - Afrin --- (((32)))",
    "search_name_ar_short": "النيرة (((32)))",
    "search_name_ar": "النيرة - مركز عفرين - عفرين --- (((32)))",
    "closest_geonames_post_code": "C1368",
    "old_sa_name": "",
    "lat": 36.52363924,
    "lon": 36.80360985,
    "sa_loc_only": "FALSE"
  },
  {
    "id": 33,
    "search_name_en": "Oqayba - Afrin - Afrin --- (((33)))",
    "search_name_ar_short": "عقيبة (((33)))",
    "search_name_ar": "عقيبة - مركز عفرين - عفرين --- (((33)))",
    "closest_geonames_post_code": "C1361",
    "old_sa_name": "",
    "lat": 36.43821459,
    "lon": 36.96803482,
    "sa_loc_only": "FALSE"
  },
  {
    "id": 34,
    "search_name_en": "Qarzihel - Afrin - Afrin --- (((34)))",
    "search_name_ar_short": "قرزيحل (((34)))",
    "search_name_ar": "قرزيحل - مركز عفرين - عفرين --- (((34)))",
    "closest_geonames_post_code": "C1387",
    "old_sa_name": "",
    "lat": 36.46644219,
    "lon": 36.88750733,
    "sa_loc_only": "FALSE"
  },
  {
    "id": 35,
    "search_name_en": "Shawarghet Elarz - Afrin - Afrin --- (((35)))",
    "search_name_ar_short": "شوارغة الأرز (((35)))",
    "search_name_ar": "شوارغة الأرز - مركز عفرين - عفرين --- (((35)))",
    "closest_geonames_post_code": "C1357",
    "old_sa_name": "",
    "lat": 36.52651481,
    "lon": 36.99684345,
    "sa_loc_only": "FALSE"
  },
  {
    "id": 36,
    "search_name_en": "Shawarghet Eljoz - Afrin - Afrin --- (((36)))",
    "search_name_ar_short": "شوارغة الجوز (((36)))",
    "search_name_ar": "شوارغة الجوز - مركز عفرين - عفرين --- (((36)))",
    "closest_geonames_post_code": "C1356",
    "old_sa_name": "",
    "lat": 36.55018586,
    "lon": 36.96145254,
    "sa_loc_only": "FALSE"
  },
  {
    "id": 37,
    "search_name_en": "Sheikh Eldeir - Afrin - Afrin --- (((37)))",
    "search_name_ar_short": "شيخ الدير (((37)))",
    "search_name_ar": "شيخ الدير - مركز عفرين - عفرين --- (((37)))",
    "closest_geonames_post_code": "C1359",
    "old_sa_name": "",
    "lat": 36.36874636,
    "lon": 36.82934407,
    "sa_loc_only": "FALSE"
  },
  {
    "id": 38,
    "search_name_en": "Tal Tawil (Afrin) - Afrin - Afrin --- (((38)))",
    "search_name_ar_short": "تل طويل (((38)))",
    "search_name_ar": "تل طويل - مركز عفرين - مركز عفرين - عفرين --- (((38)))",
    "closest_geonames_post_code": "C6333",
    "old_sa_name": "",
    "lat": 36.52434844,
    "lon": 36.86236128,
    "sa_loc_only": "FALSE"
  },
  {
    "id": 39,
    "search_name_en": "Tellef - Afrin - Afrin --- (((39)))",
    "search_name_ar_short": "تللف (((39)))",
    "search_name_ar": "تللف - مركز عفرين - عفرين --- (((39)))",
    "closest_geonames_post_code": "C1355",
    "old_sa_name": "",
    "lat": 36.4353032,
    "lon": 36.80265316,
    "sa_loc_only": "FALSE"
  },
  {
    "id": 40,
    "search_name_en": "Tharifa - Afrin - Afrin --- (((40)))",
    "search_name_ar_short": "الظريفة (((40)))",
    "search_name_ar": "الظريفة - مركز عفرين - عفرين --- (((40)))",
    "closest_geonames_post_code": "C1363",
    "old_sa_name": "",
    "lat": 36.49556115,
    "lon": 36.88259305,
    "sa_loc_only": "FALSE"
  },
  {
    "id": 41,
    "search_name_en": "Zahrat Elhayat - Afrin - Afrin --- (((41)))",
    "search_name_ar_short": "زهرةالحياة (((41)))",
    "search_name_ar": "زهرةالحياة - مركز عفرين - عفرين --- (((41)))",
    "closest_geonames_post_code": "C1379",
    "old_sa_name": "",
    "lat": 36.42977395,
    "lon": 37.01303326,
    "sa_loc_only": "FALSE"
  },
  {
    "id": 42,
    "search_name_en": "Ziyara Afrin - Afrin - Afrin --- (((42)))",
    "search_name_ar_short": "الزيارة عفرين (((42)))",
    "search_name_ar": "الزيارة عفرين - مركز عفرين - عفرين --- (((42)))",
    "closest_geonames_post_code": "C1358",
    "old_sa_name": "حلب : زيارة",
    "lat": 36.4222865,
    "lon": 37.00493422,
    "sa_loc_only": "FALSE"
  },
  {
    "id": 43,
    "search_name_en": "Zuraikat - Afrin - Afrin --- (((43)))",
    "search_name_ar_short": "الزريقات (((43)))",
    "search_name_ar": "الزريقات - مركز عفرين - عفرين --- (((43)))",
    "closest_geonames_post_code": "C6393",
    "old_sa_name": "",
    "lat": 36.47791044,
    "lon": 36.93178173,
    "sa_loc_only": "FALSE"
  },
  {
    "id": 44,
    "search_name_en": "Abel - Bulbul - Afrin --- (((44)))",
    "search_name_ar_short": "أبل (((44)))",
    "search_name_ar": "أبل - بلبل - بلبل - عفرين --- (((44)))",
    "closest_geonames_post_code": "C1397",
    "old_sa_name": "",
    "lat": 36.6936398,
    "lon": 36.84618376,
    "sa_loc_only": "FALSE"
  },
  {
    "id": 45,
    "search_name_en": "Ali Elatrash - Olikar - Bulbul - Afrin --- (((45)))",
    "search_name_ar_short": "علي الأطرش_عليكار (((45)))",
    "search_name_ar": "علي الأطرش_عليكار - بلبل - عفرين --- (((45)))",
    "closest_geonames_post_code": "C1408",
    "old_sa_name": "",
    "lat": 36.79023057,
    "lon": 36.78387654,
    "sa_loc_only": "FALSE"
  },
  {
    "id": 46,
    "search_name_en": "Ashani - Bulbul - Afrin --- (((46)))",
    "search_name_ar_short": "عشاني (((46)))",
    "search_name_ar": "عشاني - بلبل - عفرين --- (((46)))",
    "closest_geonames_post_code": "C1411",
    "old_sa_name": "",
    "lat": 36.69595392,
    "lon": 36.78425767,
    "sa_loc_only": "FALSE"
  },
  {
    "id": 47,
    "search_name_en": "Bali - Koy - Bulbul - Afrin --- (((47)))",
    "search_name_ar_short": "بالي_كوي (((47)))",
    "search_name_ar": "بالي_كوي - بلبل - عفرين --- (((47)))",
    "closest_geonames_post_code": "C1407",
    "old_sa_name": "",
    "lat": 36.78638501,
    "lon": 36.83556834,
    "sa_loc_only": "FALSE"
  },
  {
    "id": 48,
    "search_name_en": "Bulbul - Bulbul - Afrin --- (((48)))",
    "search_name_ar_short": "بلبل (((48)))",
    "search_name_ar": "بلبل - بلبل - عفرين --- (((48)))",
    "closest_geonames_post_code": "C1391",
    "old_sa_name": "",
    "lat": 36.76965567,
    "lon": 36.81934703,
    "sa_loc_only": "FALSE"
  },
  {
    "id": 49,
    "search_name_en": "Deir Hasan - Bulbul - Afrin --- (((49)))",
    "search_name_ar_short": "دير حسن (((49)))",
    "search_name_ar": "دير حسن - بلبل - عفرين --- (((49)))",
    "closest_geonames_post_code": "C1399",
    "old_sa_name": "",
    "lat": 36.6624492,
    "lon": 36.84431774,
    "sa_loc_only": "FALSE"
  },
  {
    "id": 50,
    "search_name_en": "Dik - Bulbul - Afrin --- (((50)))",
    "search_name_ar_short": "الديك (((50)))",
    "search_name_ar": "الديك - بلبل - عفرين --- (((50)))",
    "closest_geonames_post_code": "C1398",
    "old_sa_name": "",
    "lat": 36.68495047,
    "lon": 36.77190173,
    "sa_loc_only": "FALSE"
  },
  {
    "id": 51,
    "search_name_en": "Hajeb - Qash Ogli - Bulbul - Afrin --- (((51)))",
    "search_name_ar_short": "الحاجب_قاش أوغلي (((51)))",
    "search_name_ar": "الحاجب_قاش أوغلي - بلبل - عفرين --- (((51)))",
    "closest_geonames_post_code": "C1402",
    "old_sa_name": "",
    "lat": 36.71655414,
    "lon": 36.83937178,
    "sa_loc_only": "FALSE"
  },
  {
    "id": 52,
    "search_name_en": "Hozan - Bulbul - Afrin --- (((52)))",
    "search_name_ar_short": "هوزان (((52)))",
    "search_name_ar": "هوزان - بلبل - عفرين --- (((52)))",
    "closest_geonames_post_code": "C1417",
    "old_sa_name": "",
    "lat": 36.71955084,
    "lon": 36.84778705,
    "sa_loc_only": "FALSE"
  },
  {
    "id": 53,
    "search_name_en": "Khader - Bulbul - Afrin --- (((53)))",
    "search_name_ar_short": "خضر (((53)))",
    "search_name_ar": "خضر - بلبل - عفرين --- (((53)))",
    "closest_geonames_post_code": "C1394",
    "old_sa_name": "",
    "lat": 36.74634027,
    "lon": 36.79487394,
    "sa_loc_only": "FALSE"
  },
  {
    "id": 54,
    "search_name_en": "Khalil - Khleilak - Bulbul - Afrin --- (((54)))",
    "search_name_ar_short": "الخليل_خليلاك (((54)))",
    "search_name_ar": "الخليل_خليلاك - بلبل - عفرين --- (((54)))",
    "closest_geonames_post_code": "C1404",
    "old_sa_name": "",
    "lat": 36.69419203,
    "lon": 36.80677813,
    "sa_loc_only": "FALSE"
  },
  {
    "id": 55,
    "search_name_en": "Marwiyeh (Bulbul) - Bulbul - Afrin --- (((55)))",
    "search_name_ar_short": "المروية (((55)))",
    "search_name_ar": "المروية - بلبل - بلبل - عفرين --- (((55)))",
    "closest_geonames_post_code": "C1414",
    "old_sa_name": "",
    "lat": 36.75430379,
    "lon": 36.74027341,
    "sa_loc_only": "FALSE"
  },
  {
    "id": 56,
    "search_name_en": "Mudallala Afrin - Eastern Kotanly - Bulbul - Afrin --- (((56)))",
    "search_name_ar_short": "المدللة عفرين_كوتانلي شرقي (((56)))",
    "search_name_ar": "المدللة عفرين_كوتانلي شرقي - بلبل - عفرين --- (((56)))",
    "closest_geonames_post_code": "C1413",
    "old_sa_name": "",
    "lat": 36.694992,
    "lon": 36.85610896,
    "sa_loc_only": "FALSE"
  },
  {
    "id": 57,
    "search_name_en": "Oba Beik Oba Basi - Bulbul - Afrin --- (((57)))",
    "search_name_ar_short": "أوبة_بيك أوبه باسي (((57)))",
    "search_name_ar": "أوبة_بيك أوبه باسي - بلبل - عفرين --- (((57)))",
    "closest_geonames_post_code": "C1393",
    "old_sa_name": "",
    "lat": 36.79681946,
    "lon": 36.76725174,
    "sa_loc_only": "FALSE"
  },
  {
    "id": 58,
    "search_name_en": "Obudan - Bulbul - Afrin --- (((58)))",
    "search_name_ar_short": "عبودان (((58)))",
    "search_name_ar": "عبودان - بلبل - عفرين --- (((58)))",
    "closest_geonames_post_code": "C1395",
    "old_sa_name": "",
    "lat": 36.75513835,
    "lon": 36.9124209,
    "sa_loc_only": "FALSE"
  },
  {
    "id": 59,
    "search_name_en": "Okan - Bulbul - Afrin --- (((59)))",
    "search_name_ar_short": "عوكان (((59)))",
    "search_name_ar": "عوكان - بلبل - عفرين --- (((59)))",
    "closest_geonames_post_code": "C1409",
    "old_sa_name": "",
    "lat": 36.74455725,
    "lon": 36.84530336,
    "sa_loc_only": "FALSE"
  },
  {
    "id": 60,
    "search_name_en": "Qastal Miqdad - Bulbul - Afrin --- (((60)))",
    "search_name_ar_short": "قسطل مقداد (((60)))",
    "search_name_ar": "قسطل مقداد - بلبل - عفرين --- (((60)))",
    "closest_geonames_post_code": "C1416",
    "old_sa_name": "",
    "lat": 36.73509451,
    "lon": 36.85819473,
    "sa_loc_only": "FALSE"
  },
  {
    "id": 61,
    "search_name_en": "Qorna - Bulbul - Afrin --- (((61)))",
    "search_name_ar_short": "قورنة (((61)))",
    "search_name_ar": "قورنة - بلبل - عفرين --- (((61)))",
    "closest_geonames_post_code": "C1418",
    "old_sa_name": "",
    "lat": 36.77301295,
    "lon": 36.84161632,
    "sa_loc_only": "FALSE"
  },
  {
    "id": 62,
    "search_name_en": "Qotan - Bulbul - Afrin --- (((62)))",
    "search_name_ar_short": "قوطان (((62)))",
    "search_name_ar": "قوطان - بلبل - عفرين --- (((62)))",
    "closest_geonames_post_code": "C1415",
    "old_sa_name": "",
    "lat": 36.71059044,
    "lon": 36.8002241,
    "sa_loc_only": "FALSE"
  },
  {
    "id": 63,
    "search_name_en": "Ras Ahmar - Bulbul - Afrin --- (((63)))",
    "search_name_ar_short": "الرأس الأحمر (((63)))",
    "search_name_ar": "الرأس الأحمر - بلبل - عفرين --- (((63)))",
    "closest_geonames_post_code": "C1403",
    "old_sa_name": "",
    "lat": 36.68546903,
    "lon": 36.87366994,
    "sa_loc_only": "FALSE"
  },
  {
    "id": 64,
    "search_name_en": "Sagher - Sagher Oba Si - Bulbul - Afrin --- (((64)))",
    "search_name_ar_short": "صاغر_صاغر أوبه سي (((64)))",
    "search_name_ar": "صاغر_صاغر أوبه سي - بلبل - عفرين --- (((64)))",
    "closest_geonames_post_code": "C1405",
    "old_sa_name": "",
    "lat": 36.70270068,
    "lon": 36.78039615,
    "sa_loc_only": "FALSE"
  },
  {
    "id": 65,
    "search_name_en": "Samha Kilani - Bulbul - Afrin --- (((65)))",
    "search_name_ar_short": "السمحة_كيلانلي (((65)))",
    "search_name_ar": "السمحة_كيلانلي - بلبل - عفرين --- (((65)))",
    "closest_geonames_post_code": "C1392",
    "old_sa_name": "",
    "lat": 36.7040017,
    "lon": 36.76697375,
    "sa_loc_only": "FALSE"
  },
  {
    "id": 66,
    "search_name_en": "Sara - Bulbul - Afrin --- (((66)))",
    "search_name_ar_short": "السعرة (((66)))",
    "search_name_ar": "السعرة - بلبل - عفرين --- (((66)))",
    "closest_geonames_post_code": "C1400",
    "old_sa_name": "",
    "lat": 36.77302381,
    "lon": 36.78277275,
    "sa_loc_only": "FALSE"
  },
  {
    "id": 67,
    "search_name_en": "Sharqan - Bulbul - Afrin --- (((67)))",
    "search_name_ar_short": "شرقان (((67)))",
    "search_name_ar": "شرقان - بلبل - عفرين --- (((67)))",
    "closest_geonames_post_code": "C1396",
    "old_sa_name": "",
    "lat": 36.73396855,
    "lon": 36.82887665,
    "sa_loc_only": "FALSE"
  },
  {
    "id": 68,
    "search_name_en": "Sheikh Khoraz - Bulbul - Afrin --- (((68)))",
    "search_name_ar_short": "شيخ خورز (((68)))",
    "search_name_ar": "شيخ خورز - بلبل - عفرين --- (((68)))",
    "closest_geonames_post_code": "C1410",
    "old_sa_name": "",
    "lat": 36.73349722,
    "lon": 36.88907088,
    "sa_loc_only": "FALSE"
  },
  {
    "id": 69,
    "search_name_en": "Tafla - Bulbul - Afrin --- (((69)))",
    "search_name_ar_short": "الطفلة (((69)))",
    "search_name_ar": "الطفلة - بلبل - عفرين --- (((69)))",
    "closest_geonames_post_code": "C1412",
    "old_sa_name": "",
    "lat": 36.71763986,
    "lon": 36.82116229,
    "sa_loc_only": "FALSE"
  },
  {
    "id": 70,
    "search_name_en": "Yabseh - Bulbul - Bulbul - Afrin --- (((70)))",
    "search_name_ar_short": "اليابسة (((70)))",
    "search_name_ar": "اليابسة - بلبل - عفرين --- (((70)))",
    "closest_geonames_post_code": "C1401",
    "old_sa_name": "",
    "lat": 36.6866564,
    "lon": 36.83437671,
    "sa_loc_only": "FALSE"
  },
  {
    "id": 71,
    "search_name_en": "Za'ra - Bulbul - Bulbul - Afrin --- (((71)))",
    "search_name_ar_short": "زعرة (((71)))",
    "search_name_ar": "زعرة - بلبل - عفرين --- (((71)))",
    "closest_geonames_post_code": "C1406",
    "old_sa_name": "",
    "lat": 36.78544752,
    "lon": 36.80324565,
    "sa_loc_only": "FALSE"
  },
  {
    "id": 72,
    "search_name_en": "Zfnek - Bulbul - Afrin --- (((72)))",
    "search_name_ar_short": "زفنك (((72)))",
    "search_name_ar": "زفنك - بلبل - عفرين --- (((72)))",
    "closest_geonames_post_code": "C6396",
    "old_sa_name": "",
    "lat": 36.68644374,
    "lon": 36.78973339,
    "sa_loc_only": "FALSE"
  },
  {
    "id": 73,
    "search_name_en": "Bayada - Jendris - Jandairis - Afrin --- (((73)))",
    "search_name_ar_short": "البياضة (((73)))",
    "search_name_ar": "البياضة - جنديرس - جنديرس - عفرين --- (((73)))",
    "closest_geonames_post_code": "C1434",
    "old_sa_name": "",
    "lat": 36.37565236,
    "lon": 36.66305343,
    "sa_loc_only": "FALSE"
  },
  {
    "id": 74,
    "search_name_en": "Burj Kmush - Jandairis - Afrin --- (((74)))",
    "search_name_ar_short": "برج كموش (((74)))",
    "search_name_ar": "برج كموش - جنديرس - عفرين --- (((74)))",
    "closest_geonames_post_code": "C1428",
    "old_sa_name": "",
    "lat": 36.42909519,
    "lon": 36.71193211,
    "sa_loc_only": "FALSE"
  },
  {
    "id": 75,
    "search_name_en": "Dakhm - Jandairis - Afrin --- (((75)))",
    "search_name_ar_short": "الضخم (((75)))",
    "search_name_ar": "الضخم - جنديرس - عفرين --- (((75)))",
    "closest_geonames_post_code": "C1423",
    "old_sa_name": "",
    "lat": 36.43759936,
    "lon": 36.74121803,
    "sa_loc_only": "FALSE"
  },
  {
    "id": 76,
    "search_name_en": "Deir Ballut - Jandairis - Afrin --- (((76)))",
    "search_name_ar_short": "دير بلوط (((76)))",
    "search_name_ar": "دير بلوط - جنديرس - عفرين --- (((76)))",
    "closest_geonames_post_code": "C1435",
    "old_sa_name": "",
    "lat": 36.33970561,
    "lon": 36.66488288,
    "sa_loc_only": "FALSE"
  },
  {
    "id": 77,
    "search_name_en": "Eastern Eshkan - Jandairis - Afrin --- (((77)))",
    "search_name_ar_short": "اشكان شرقي (((77)))",
    "search_name_ar": "اشكان شرقي - جنديرس - عفرين --- (((77)))",
    "closest_geonames_post_code": "C1441",
    "old_sa_name": "",
    "lat": 36.46096449,
    "lon": 36.73265701,
    "sa_loc_only": "FALSE"
  },
  {
    "id": 78,
    "search_name_en": "Fasha - Jandairis - Afrin --- (((78)))",
    "search_name_ar_short": "الفسحة (((78)))",
    "search_name_ar": "الفسحة - جنديرس - عفرين --- (((78)))",
    "closest_geonames_post_code": "C1440",
    "old_sa_name": "",
    "lat": 36.48048943,
    "lon": 36.75994263,
    "sa_loc_only": "FALSE"
  },
  {
    "id": 79,
    "search_name_en": "Freiriyeh - Jandairis - Afrin --- (((79)))",
    "search_name_ar_short": "فريرية (((79)))",
    "search_name_ar": "فريرية - جنديرس - عفرين --- (((79)))",
    "closest_geonames_post_code": "C1446",
    "old_sa_name": "",
    "lat": 36.39959458,
    "lon": 36.77077286,
    "sa_loc_only": "FALSE"
  },
  {
    "id": 80,
    "search_name_en": "Haj Eskandar - Jandairis - Afrin --- (((80)))",
    "search_name_ar_short": "حاج اسكندر (((80)))",
    "search_name_ar": "حاج اسكندر - جنديرس - عفرين --- (((80)))",
    "closest_geonames_post_code": "C1420",
    "old_sa_name": "",
    "lat": 36.37654239,
    "lon": 36.63971782,
    "sa_loc_only": "FALSE"
  },
  {
    "id": 81,
    "search_name_en": "Hamam (Jandairis) - Jandairis - Afrin --- (((81)))",
    "search_name_ar_short": "الحمام (((81)))",
    "search_name_ar": "الحمام - جنديرس - جنديرس - عفرين --- (((81)))",
    "closest_geonames_post_code": "C1427",
    "old_sa_name": "",
    "lat": 36.36781965,
    "lon": 36.60662073,
    "sa_loc_only": "FALSE"
  },
  {
    "id": 82,
    "search_name_en": "Hmlak-Hmelek - Jandairis - Afrin --- (((82)))",
    "search_name_ar_short": "حملك-حميلك (((82)))",
    "search_name_ar": "حملك-حميلك - جنديرس - عفرين --- (((82)))",
    "closest_geonames_post_code": "C6397",
    "old_sa_name": "",
    "lat": 36.39883593,
    "lon": 36.72155589,
    "sa_loc_only": "FALSE"
  },
  {
    "id": 83,
    "search_name_en": "Jalaq (Jandairis) - Jandairis - Afrin --- (((83)))",
    "search_name_ar_short": "جلق (((83)))",
    "search_name_ar": "جلق - جنديرس - جنديرس - عفرين --- (((83)))",
    "closest_geonames_post_code": "C1425",
    "old_sa_name": "",
    "lat": 36.47559474,
    "lon": 36.74538479,
    "sa_loc_only": "FALSE"
  },
  {
    "id": 84,
    "search_name_en": "Jalma - Jandairis - Jandairis - Afrin --- (((84)))",
    "search_name_ar_short": "جلمة (((84)))",
    "search_name_ar": "جلمة - جنديرس - عفرين --- (((84)))",
    "closest_geonames_post_code": "C1424",
    "old_sa_name": "",
    "lat": 36.35714414,
    "lon": 36.77004718,
    "sa_loc_only": "FALSE"
  },
  {
    "id": 85,
    "search_name_en": "Jandairis - Jandairis - Afrin --- (((85)))",
    "search_name_ar_short": "جنديرس (((85)))",
    "search_name_ar": "جنديرس - جنديرس - عفرين --- (((85)))",
    "closest_geonames_post_code": "C1426",
    "old_sa_name": "حلب : جنديرس",
    "lat": 36.3924885,
    "lon": 36.68956263,
    "sa_loc_only": "FALSE"
  },
  {
    "id": 86,
    "search_name_en": "Jum Afrin - Jandairis - Afrin --- (((86)))",
    "search_name_ar_short": "جوم عفرين (((86)))",
    "search_name_ar": "جوم عفرين - جنديرس - عفرين --- (((86)))",
    "closest_geonames_post_code": "C1421",
    "old_sa_name": "",
    "lat": 36.45190127,
    "lon": 36.71331628,
    "sa_loc_only": "FALSE"
  },
  {
    "id": 87,
    "search_name_en": "Kafr Safra - Jandairis - Afrin --- (((87)))",
    "search_name_ar_short": "كفر صفرة (((87)))",
    "search_name_ar": "كفر صفرة - جنديرس - عفرين --- (((87)))",
    "closest_geonames_post_code": "C1449",
    "old_sa_name": "",
    "lat": 36.42759295,
    "lon": 36.66183023,
    "sa_loc_only": "FALSE"
  },
  {
    "id": 88,
    "search_name_en": "Kharzan - Jandairis - Afrin --- (((88)))",
    "search_name_ar_short": "خرزان (((88)))",
    "search_name_ar": "خرزان - جنديرس - عفرين --- (((88)))",
    "closest_geonames_post_code": "C1432",
    "old_sa_name": "",
    "lat": 36.4719907,
    "lon": 36.73446098,
    "sa_loc_only": "FALSE"
  },
  {
    "id": 89,
    "search_name_en": "Koran Jandris - Jandairis - Afrin --- (((89)))",
    "search_name_ar_short": "كوران جنديرس (((89)))",
    "search_name_ar": "كوران جنديرس - جنديرس - عفرين --- (((89)))",
    "closest_geonames_post_code": "C1447",
    "old_sa_name": "",
    "lat": 36.4396202,
    "lon": 36.67339214,
    "sa_loc_only": "FALSE"
  },
  {
    "id": 90,
    "search_name_en": "Kordan - Jandairis - Afrin --- (((90)))",
    "search_name_ar_short": "كوردان (((90)))",
    "search_name_ar": "كوردان - جنديرس - عفرين --- (((90)))",
    "closest_geonames_post_code": "C1445",
    "old_sa_name": "",
    "lat": 36.47044674,
    "lon": 36.6759338,
    "sa_loc_only": "FALSE"
  },
  {
    "id": 91,
    "search_name_en": "Lower Kafardali - Jandairis - Afrin --- (((91)))",
    "search_name_ar_short": "كفردلي تحتاني (((91)))",
    "search_name_ar": "كفردلي تحتاني - جنديرس - عفرين --- (((91)))",
    "closest_geonames_post_code": "C1448",
    "old_sa_name": "",
    "lat": 36.47734529,
    "lon": 36.77861583,
    "sa_loc_only": "FALSE"
  },
  {
    "id": 92,
    "search_name_en": "Lower-Marwana - Jandairis - Afrin --- (((92)))",
    "search_name_ar_short": "مروانة تحتاني (((92)))",
    "search_name_ar": "مروانة تحتاني - جنديرس - عفرين --- (((92)))",
    "closest_geonames_post_code": "C6399",
    "old_sa_name": "",
    "lat": 36.42043745,
    "lon": 36.59500859,
    "sa_loc_only": "FALSE"
  },
  {
    "id": 93,
    "search_name_en": "Nisriyeh - Jandairis - Afrin --- (((93)))",
    "search_name_ar_short": "النسرية (((93)))",
    "search_name_ar": "النسرية - جنديرس - عفرين --- (((93)))",
    "closest_geonames_post_code": "C1439",
    "old_sa_name": "",
    "lat": 36.35086555,
    "lon": 36.64122713,
    "sa_loc_only": "FALSE"
  },
  {
    "id": 94,
    "search_name_en": "Ramadiyeh - Jandairis - Jandairis - Afrin --- (((94)))",
    "search_name_ar_short": "رمادية (((94)))",
    "search_name_ar": "رمادية - جنديرس - عفرين --- (((94)))",
    "closest_geonames_post_code": "C1422",
    "old_sa_name": "",
    "lat": 36.39914802,
    "lon": 36.74545721,
    "sa_loc_only": "FALSE"
  },
  {
    "id": 95,
    "search_name_en": "Ras Elosud - Qarablish - Jandairis - Afrin --- (((95)))",
    "search_name_ar_short": "راس الأسود_قراباش (((95)))",
    "search_name_ar": "راس الأسود_قراباش - جنديرس - عفرين --- (((95)))",
    "closest_geonames_post_code": "C1429",
    "old_sa_name": "",
    "lat": 36.47288322,
    "lon": 36.76175374,
    "sa_loc_only": "FALSE"
  },
  {
    "id": 96,
    "search_name_en": "Sheikh Abel Rahman - Jandairis - Afrin --- (((96)))",
    "search_name_ar_short": "شيخ عبد الرحمن (((96)))",
    "search_name_ar": "شيخ عبد الرحمن - جنديرس - عفرين --- (((96)))",
    "closest_geonames_post_code": "C1419",
    "old_sa_name": "",
    "lat": 36.43149857,
    "lon": 36.76354607,
    "sa_loc_only": "FALSE"
  },
  {
    "id": 97,
    "search_name_en": "Tal Hamo - Jandairis - Afrin --- (((97)))",
    "search_name_ar_short": "تل حمو (((97)))",
    "search_name_ar": "تل حمو - جنديرس - عفرين --- (((97)))",
    "closest_geonames_post_code": "C1430",
    "old_sa_name": "",
    "lat": 36.41732004,
    "lon": 36.77166891,
    "sa_loc_only": "FALSE"
  },
  {
    "id": 98,
    "search_name_en": "Tal Slur - Jandairis - Afrin --- (((98)))",
    "search_name_ar_short": "تل سلور (((98)))",
    "search_name_ar": "تل سلور - جنديرس - عفرين --- (((98)))",
    "closest_geonames_post_code": "C1433",
    "old_sa_name": "حلب : تل سلور",
    "lat": 36.36551728,
    "lon": 36.72215711,
    "sa_loc_only": "FALSE"
  },
  {
    "id": 99,
    "search_name_en": "Tatara-Tataranli - Jandairis - Afrin --- (((99)))",
    "search_name_ar_short": "تاتارا-تاتارانلي (((99)))",
    "search_name_ar": "تاتارا-تاتارانلي - جنديرس - عفرين --- (((99)))",
    "closest_geonames_post_code": "C6398",
    "old_sa_name": "",
    "lat": 36.49975462,
    "lon": 36.65562282,
    "sa_loc_only": "FALSE"
  },
  {
    "id": 100,
    "search_name_en": "Upper Diwan - Jandairis - Afrin --- (((100)))",
    "search_name_ar_short": "ديوان فوقاني (((100)))",
    "search_name_ar": "ديوان فوقاني - جنديرس - عفرين --- (((100)))",
    "closest_geonames_post_code": "C1431",
    "old_sa_name": "",
    "lat": 36.34238887,
    "lon": 36.69975454,
    "sa_loc_only": "FALSE"
  },
  {
    "id": 101,
    "search_name_en": "Upper Kafardali - Jandairis - Afrin --- (((101)))",
    "search_name_ar_short": "كفردلي فوقاني (((101)))",
    "search_name_ar": "كفردلي فوقاني - جنديرس - عفرين --- (((101)))",
    "closest_geonames_post_code": "C1442",
    "old_sa_name": "",
    "lat": 36.50033859,
    "lon": 36.76502115,
    "sa_loc_only": "FALSE"
  },
  {
    "id": 102,
    "search_name_en": "Upper Marwana - Jandairis - Afrin --- (((102)))",
    "search_name_ar_short": "مروانة فوقاني (((102)))",
    "search_name_ar": "مروانة فوقاني - جنديرس - عفرين --- (((102)))",
    "closest_geonames_post_code": "C1443",
    "old_sa_name": "",
    "lat": 36.42157681,
    "lon": 36.60391855,
    "sa_loc_only": "FALSE"
  },
  {
    "id": 103,
    "search_name_en": "Upper Maskeh - Jandairis - Afrin --- (((103)))",
    "search_name_ar_short": "مسكة فوقاني (((103)))",
    "search_name_ar": "مسكة فوقاني - جنديرس - عفرين --- (((103)))",
    "closest_geonames_post_code": "C1444",
    "old_sa_name": "",
    "lat": 36.4551702,
    "lon": 36.69358406,
    "sa_loc_only": "FALSE"
  },
  {
    "id": 104,
    "search_name_en": "Western Eshkab - Jandairis - Afrin --- (((104)))",
    "search_name_ar_short": "اشكان غربي (((104)))",
    "search_name_ar": "اشكان غربي - جنديرس - عفرين --- (((104)))",
    "closest_geonames_post_code": "C1437",
    "old_sa_name": "",
    "lat": 36.39922626,
    "lon": 36.63472022,
    "sa_loc_only": "FALSE"
  },
  {
    "id": 105,
    "search_name_en": "Western Khaltan - Jandairis - Afrin --- (((105)))",
    "search_name_ar_short": "خلطان غربي (((105)))",
    "search_name_ar": "خلطان غربي - جنديرس - عفرين --- (((105)))",
    "closest_geonames_post_code": "C1436",
    "old_sa_name": "",
    "lat": 36.48083322,
    "lon": 36.70773013,
    "sa_loc_only": "FALSE"
  },
  {
    "id": 106,
    "search_name_en": "Zanda - Jandairis - Afrin --- (((106)))",
    "search_name_ar_short": "زندة (((106)))",
    "search_name_ar": "زندة - جنديرس - عفرين --- (((106)))",
    "closest_geonames_post_code": "C1438",
    "old_sa_name": "",
    "lat": 36.41860862,
    "lon": 36.69458716,
    "sa_loc_only": "FALSE"
  },
  {
    "id": 107,
    "search_name_en": "Abraz - Ma'btali - Afrin --- (((107)))",
    "search_name_ar_short": "أبرز (((107)))",
    "search_name_ar": "أبرز - معبطلي - عفرين --- (((107)))",
    "closest_geonames_post_code": "C1547",
    "old_sa_name": "",
    "lat": 36.62671129,
    "lon": 36.7616426,
    "sa_loc_only": "FALSE"
  },
  {
    "id": 108,
    "search_name_en": "Amiriya - Meirkan - Ma'btali - Afrin --- (((108)))",
    "search_name_ar_short": "الأميرية_ميركان (((108)))",
    "search_name_ar": "الأميرية_ميركان - معبطلي - عفرين --- (((108)))",
    "closest_geonames_post_code": "C1543",
    "old_sa_name": "",
    "lat": 36.53745317,
    "lon": 36.7157225,
    "sa_loc_only": "FALSE"
  },
  {
    "id": 109,
    "search_name_en": "Anbar - Ma'btali - Afrin --- (((109)))",
    "search_name_ar_short": "أنبار (((109)))",
    "search_name_ar": "أنبار - معبطلي - عفرين --- (((109)))",
    "closest_geonames_post_code": "C1549",
    "old_sa_name": "",
    "lat": 36.60982945,
    "lon": 36.81400321,
    "sa_loc_only": "FALSE"
  },
  {
    "id": 110,
    "search_name_en": "Arab-Shekho - Ma'btali - Afrin --- (((110)))",
    "search_name_ar_short": "عرب شيخو (((110)))",
    "search_name_ar": "عرب شيخو - معبطلي - عفرين --- (((110)))",
    "closest_geonames_post_code": "C6401",
    "old_sa_name": "",
    "lat": 36.6099252,
    "lon": 36.83809221,
    "sa_loc_only": "FALSE"
  },
  {
    "id": 111,
    "search_name_en": "Ashur - Ma'btali - Afrin --- (((111)))",
    "search_name_ar_short": "عاشور (((111)))",
    "search_name_ar": "عاشور - معبطلي - عفرين --- (((111)))",
    "closest_geonames_post_code": "C1537",
    "old_sa_name": "",
    "lat": 36.52851555,
    "lon": 36.67542957,
    "sa_loc_only": "FALSE"
  },
  {
    "id": 112,
    "search_name_en": "Awlad El Arab - Arab Oshagi - Ma'btali - Afrin --- (((112)))",
    "search_name_ar_short": "أولاد العرب_عرب أوشاغي (((112)))",
    "search_name_ar": "أولاد العرب_عرب أوشاغي - معبطلي - عفرين --- (((112)))",
    "closest_geonames_post_code": "C1548",
    "old_sa_name": "",
    "lat": 36.57472131,
    "lon": 36.70892548,
    "sa_loc_only": "FALSE"
  },
  {
    "id": 113,
    "search_name_en": "Bermaja - Ma'btali - Afrin --- (((113)))",
    "search_name_ar_short": "برماجة (((113)))",
    "search_name_ar": "برماجة - معبطلي - عفرين --- (((113)))",
    "closest_geonames_post_code": "C1535",
    "old_sa_name": "",
    "lat": 36.54947836,
    "lon": 36.70203784,
    "sa_loc_only": "FALSE"
  },
  {
    "id": 114,
    "search_name_en": "Big Dar - Ma'btali - Afrin --- (((114)))",
    "search_name_ar_short": "دار كبير (((114)))",
    "search_name_ar": "دار كبير - معبطلي - عفرين --- (((114)))",
    "closest_geonames_post_code": "C1542",
    "old_sa_name": "",
    "lat": 36.54352096,
    "lon": 36.76587942,
    "sa_loc_only": "FALSE"
  },
  {
    "id": 115,
    "search_name_en": "Haj Qassem - Ma'btali - Afrin --- (((115)))",
    "search_name_ar_short": "حاج قاسم (((115)))",
    "search_name_ar": "حاج قاسم - معبطلي - عفرين --- (((115)))",
    "closest_geonames_post_code": "C1541",
    "old_sa_name": "",
    "lat": 36.51870541,
    "lon": 36.67138002,
    "sa_loc_only": "FALSE"
  },
  {
    "id": 116,
    "search_name_en": "Hamu Raju - Ma'btali - Afrin --- (((116)))",
    "search_name_ar_short": "حمو راجو (((116)))",
    "search_name_ar": "حمو راجو - معبطلي - عفرين --- (((116)))",
    "closest_geonames_post_code": "C1538",
    "old_sa_name": "",
    "lat": 36.5400949,
    "lon": 36.67921843,
    "sa_loc_only": "FALSE"
  },
  {
    "id": 117,
    "search_name_en": "Jazruniyeh - Ma'btali - Afrin --- (((117)))",
    "search_name_ar_short": "الجزرونية (((117)))",
    "search_name_ar": "الجزرونية - معبطلي - عفرين --- (((117)))",
    "closest_geonames_post_code": "C1551",
    "old_sa_name": "",
    "lat": 36.55176353,
    "lon": 36.78314631,
    "sa_loc_only": "FALSE"
  },
  {
    "id": 118,
    "search_name_en": "Jomrokiyeh - Ma'btali - Afrin --- (((118)))",
    "search_name_ar_short": "الجمركية (((118)))",
    "search_name_ar": "الجمركية - معبطلي - عفرين --- (((118)))",
    "closest_geonames_post_code": "C1544",
    "old_sa_name": "",
    "lat": 36.62051672,
    "lon": 36.83771363,
    "sa_loc_only": "FALSE"
  },
  {
    "id": 119,
    "search_name_en": "Maasara - Maasaret Jaq - Ma'btali - Afrin --- (((119)))",
    "search_name_ar_short": "المعصرة_معصرةجق (((119)))",
    "search_name_ar": "المعصرة_معصرةجق - معبطلي - عفرين --- (((119)))",
    "closest_geonames_post_code": "C1546",
    "old_sa_name": "",
    "lat": 36.54870239,
    "lon": 36.66547804,
    "sa_loc_only": "FALSE"
  },
  {
    "id": 120,
    "search_name_en": "Mabtali - Ma'btali - Afrin --- (((120)))",
    "search_name_ar_short": "المعبطلي (((120)))",
    "search_name_ar": "المعبطلي - معبطلي - عفرين --- (((120)))",
    "closest_geonames_post_code": "C1552",
    "old_sa_name": "",
    "lat": 36.56326427,
    "lon": 36.73679142,
    "sa_loc_only": "FALSE"
  },
  {
    "id": 121,
    "search_name_en": "Mazraet Shlu - Ma'btali - Afrin --- (((121)))",
    "search_name_ar_short": "مزرعة شلو (((121)))",
    "search_name_ar": "مزرعة شلو - معبطلي - عفرين --- (((121)))",
    "closest_geonames_post_code": "C6400",
    "old_sa_name": "",
    "lat": 36.5654262,
    "lon": 36.69944207,
    "sa_loc_only": "FALSE"
  },
  {
    "id": 122,
    "search_name_en": "Mazuleh - Rotanli - Ma'btali - Afrin --- (((122)))",
    "search_name_ar_short": "المعزولة_روطانلي (((122)))",
    "search_name_ar": "المعزولة_روطانلي - معبطلي - عفرين --- (((122)))",
    "closest_geonames_post_code": "C1553",
    "old_sa_name": "",
    "lat": 36.50210727,
    "lon": 36.67853386,
    "sa_loc_only": "FALSE"
  },
  {
    "id": 123,
    "search_name_en": "Sheikh Aqraa - Kilo - Ma'btali - Afrin --- (((123)))",
    "search_name_ar_short": "الشيخ الأقرع_كيلو (((123)))",
    "search_name_ar": "الشيخ الأقرع_كيلو - معبطلي - عفرين --- (((123)))",
    "closest_geonames_post_code": "C1554",
    "old_sa_name": "",
    "lat": 36.61402196,
    "lon": 36.74163556,
    "sa_loc_only": "FALSE"
  },
  {
    "id": 124,
    "search_name_en": "Sherkan - Sherkanli - Ma'btali - Afrin --- (((124)))",
    "search_name_ar_short": "شيركان_شيركانلي (((124)))",
    "search_name_ar": "شيركان_شيركانلي - معبطلي - عفرين --- (((124)))",
    "closest_geonames_post_code": "C1540",
    "old_sa_name": "",
    "lat": 36.53163795,
    "lon": 36.71123,
    "sa_loc_only": "FALSE"
  },
  {
    "id": 125,
    "search_name_en": "Shorba - Ma'btali - Afrin --- (((125)))",
    "search_name_ar_short": "الشوربة (((125)))",
    "search_name_ar": "الشوربة - معبطلي - عفرين --- (((125)))",
    "closest_geonames_post_code": "C1539",
    "old_sa_name": "",
    "lat": 36.63798014,
    "lon": 36.83201514,
    "sa_loc_only": "FALSE"
  },
  {
    "id": 126,
    "search_name_en": "Smal - Ma'btali - Afrin --- (((126)))",
    "search_name_ar_short": "السمال (((126)))",
    "search_name_ar": "السمال - معبطلي - عفرين --- (((126)))",
    "closest_geonames_post_code": "C1550",
    "old_sa_name": "",
    "lat": 36.63093456,
    "lon": 36.81930989,
    "sa_loc_only": "FALSE"
  },
  {
    "id": 127,
    "search_name_en": "Surra - Kobak - Ma'btali - Afrin --- (((127)))",
    "search_name_ar_short": "الصرة_كوباك (((127)))",
    "search_name_ar": "الصرة_كوباك - معبطلي - عفرين --- (((127)))",
    "closest_geonames_post_code": "C1536",
    "old_sa_name": "",
    "lat": 36.62993826,
    "lon": 36.75507052,
    "sa_loc_only": "FALSE"
  },
  {
    "id": 128,
    "search_name_en": "Yakhur - Ayki Yakhur - Ma'btali - Afrin --- (((128)))",
    "search_name_ar_short": "ياخور_أيكي أخور (((128)))",
    "search_name_ar": "ياخور_أيكي أخور - معبطلي - عفرين --- (((128)))",
    "closest_geonames_post_code": "C1555",
    "old_sa_name": "",
    "lat": 36.51471022,
    "lon": 36.70423236,
    "sa_loc_only": "FALSE"
  },
  {
    "id": 129,
    "search_name_en": "Yatimeh - Oksozli - Ma'btali - Afrin --- (((129)))",
    "search_name_ar_short": "اليتيمة_أوكسوزلي (((129)))",
    "search_name_ar": "اليتيمة_أوكسوزلي - معبطلي - عفرين --- (((129)))",
    "closest_geonames_post_code": "C1545",
    "old_sa_name": "",
    "lat": 36.62744257,
    "lon": 36.73127468,
    "sa_loc_only": "FALSE"
  },
  {
    "id": 130,
    "search_name_en": "Aaliaa - Ali Baski - Raju - Afrin --- (((130)))",
    "search_name_ar_short": "العلياء_علي بسكي (((130)))",
    "search_name_ar": "العلياء_علي بسكي - راجو - عفرين --- (((130)))",
    "closest_geonames_post_code": "C1458",
    "old_sa_name": "",
    "lat": 36.74875415,
    "lon": 36.67211612,
    "sa_loc_only": "FALSE"
  },
  {
    "id": 131,
    "search_name_en": "Ada - Raju - Afrin --- (((131)))",
    "search_name_ar_short": "ادة (((131)))",
    "search_name_ar": "ادة - راجو - عفرين --- (((131)))",
    "closest_geonames_post_code": "C1479",
    "old_sa_name": "",
    "lat": 36.76664503,
    "lon": 36.66021593,
    "sa_loc_only": "FALSE"
  },
  {
    "id": 132,
    "search_name_en": "Almadar - Raju - Afrin --- (((132)))",
    "search_name_ar_short": "علمدار (((132)))",
    "search_name_ar": "علمدار - راجو - عفرين --- (((132)))",
    "closest_geonames_post_code": "C1467",
    "old_sa_name": "",
    "lat": 36.71474514,
    "lon": 36.7291366,
    "sa_loc_only": "FALSE"
  },
  {
    "id": 133,
    "search_name_en": "Atman - Raju - Raju - Afrin --- (((133)))",
    "search_name_ar_short": "عطمان (((133)))",
    "search_name_ar": "عطمان - راجو - عفرين --- (((133)))",
    "closest_geonames_post_code": "C1481",
    "old_sa_name": "",
    "lat": 36.65593955,
    "lon": 36.65468745,
    "sa_loc_only": "FALSE"
  },
  {
    "id": 134,
    "search_name_en": "Barband - Raju - Afrin --- (((134)))",
    "search_name_ar_short": "بربند (((134)))",
    "search_name_ar": "بربند - راجو - عفرين --- (((134)))",
    "closest_geonames_post_code": "C1465",
    "old_sa_name": "",
    "lat": 36.63358879,
    "lon": 36.71353137,
    "sa_loc_only": "FALSE"
  },
  {
    "id": 135,
    "search_name_en": "Batra (Raju) - Raju - Afrin --- (((135)))",
    "search_name_ar_short": "البتراء (((135)))",
    "search_name_ar": "البتراء - راجو - راجو - عفرين --- (((135)))",
    "closest_geonames_post_code": "C1459",
    "old_sa_name": "",
    "lat": 36.78752274,
    "lon": 36.72749802,
    "sa_loc_only": "FALSE"
  },
  {
    "id": 136,
    "search_name_en": "Beit Adin - Raju - Afrin --- (((136)))",
    "search_name_ar_short": "بيت عدين (((136)))",
    "search_name_ar": "بيت عدين - راجو - عفرين --- (((136)))",
    "closest_geonames_post_code": "C1473",
    "old_sa_name": "",
    "lat": 36.62082737,
    "lon": 36.68986128,
    "sa_loc_only": "FALSE"
  },
  {
    "id": 137,
    "search_name_en": "Big Siwan - Raju - Afrin --- (((137)))",
    "search_name_ar_short": "الصوان الكبير (((137)))",
    "search_name_ar": "الصوان الكبير - راجو - عفرين --- (((137)))",
    "closest_geonames_post_code": "C1478",
    "old_sa_name": "",
    "lat": 36.7151449,
    "lon": 36.69797629,
    "sa_loc_only": "FALSE"
  },
  {
    "id": 138,
    "search_name_en": "Bilaliyeh - Blaliko - Raju - Afrin --- (((138)))",
    "search_name_ar_short": "بلالية_بلاليكو (((138)))",
    "search_name_ar": "بلالية_بلاليكو - راجو - عفرين --- (((138)))",
    "closest_geonames_post_code": "C1468",
    "old_sa_name": "",
    "lat": 36.75029643,
    "lon": 36.68398186,
    "sa_loc_only": "FALSE"
  },
  {
    "id": 139,
    "search_name_en": "Birein - Jtal Qoyo - Raju - Afrin --- (((139)))",
    "search_name_ar_short": "البئرين_جتال قويو (((139)))",
    "search_name_ar": "البئرين_جتال قويو - راجو - عفرين --- (((139)))",
    "closest_geonames_post_code": "C1471",
    "old_sa_name": "",
    "lat": 36.68453775,
    "lon": 36.75013279,
    "sa_loc_only": "FALSE"
  },
  {
    "id": 140,
    "search_name_en": "Darwishiyeh - Raju - Afrin --- (((140)))",
    "search_name_ar_short": "الدرويشية (((140)))",
    "search_name_ar": "الدرويشية - راجو - عفرين --- (((140)))",
    "closest_geonames_post_code": "C1456",
    "old_sa_name": "",
    "lat": 36.63540456,
    "lon": 36.66836443,
    "sa_loc_only": "FALSE"
  },
  {
    "id": 141,
    "search_name_en": "Dawdaw - Raju - Afrin --- (((141)))",
    "search_name_ar_short": "ضوضو (((141)))",
    "search_name_ar": "ضوضو - راجو - عفرين --- (((141)))",
    "closest_geonames_post_code": "C1454",
    "old_sa_name": "",
    "lat": 36.78910663,
    "lon": 36.71905581,
    "sa_loc_only": "FALSE"
  },
  {
    "id": 142,
    "search_name_en": "Ghizlan - Jilani - Raju - Afrin --- (((142)))",
    "search_name_ar_short": "الغزلان_جيلاني (((142)))",
    "search_name_ar": "الغزلان_جيلاني - راجو - عفرين --- (((142)))",
    "closest_geonames_post_code": "C1451",
    "old_sa_name": "",
    "lat": 36.74035734,
    "lon": 36.70999012,
    "sa_loc_only": "FALSE"
  },
  {
    "id": 143,
    "search_name_en": "Haidar Obasi - Raju - Afrin --- (((143)))",
    "search_name_ar_short": "حيدر أوبه سي (((143)))",
    "search_name_ar": "حيدر أوبه سي - راجو - عفرين --- (((143)))",
    "closest_geonames_post_code": "C6403",
    "old_sa_name": "",
    "lat": 36.71634423,
    "lon": 36.66617441,
    "sa_loc_only": "FALSE"
  },
  {
    "id": 144,
    "search_name_en": "Haj Khalil - Raju - Afrin --- (((144)))",
    "search_name_ar_short": "حاج خليل (((144)))",
    "search_name_ar": "حاج خليل - راجو - عفرين --- (((144)))",
    "closest_geonames_post_code": "C1455",
    "old_sa_name": "",
    "lat": 36.67808345,
    "lon": 36.68391742,
    "sa_loc_only": "FALSE"
  },
  {
    "id": 145,
    "search_name_en": "Hajman - Raju - Afrin --- (((145)))",
    "search_name_ar_short": "حجمان (((145)))",
    "search_name_ar": "حجمان - راجو - عفرين --- (((145)))",
    "closest_geonames_post_code": "C1463",
    "old_sa_name": "",
    "lat": 36.70866756,
    "lon": 36.68833168,
    "sa_loc_only": "FALSE"
  },
  {
    "id": 146,
    "search_name_en": "Halil - Holilo - Raju - Afrin --- (((146)))",
    "search_name_ar_short": "هليل_هوليلو (((146)))",
    "search_name_ar": "هليل_هوليلو - راجو - عفرين --- (((146)))",
    "closest_geonames_post_code": "C1489",
    "old_sa_name": "",
    "lat": 36.69005436,
    "lon": 36.6943031,
    "sa_loc_only": "FALSE"
  },
  {
    "id": 147,
    "search_name_en": "Hamshu - Hamashtlak - Raju - Afrin --- (((147)))",
    "search_name_ar_short": "حمشو_حمشتلك (((147)))",
    "search_name_ar": "حمشو_حمشتلك - راجو - عفرين --- (((147)))",
    "closest_geonames_post_code": "C1452",
    "old_sa_name": "",
    "lat": 36.62901492,
    "lon": 36.70073723,
    "sa_loc_only": "FALSE"
  },
  {
    "id": 148,
    "search_name_en": "Hasan Klkawi - Raju - Afrin --- (((148)))",
    "search_name_ar_short": "حسن كلكاوي (((148)))",
    "search_name_ar": "حسن كلكاوي - راجو - عفرين --- (((148)))",
    "closest_geonames_post_code": "C6404",
    "old_sa_name": "",
    "lat": 36.63072326,
    "lon": 36.63150004,
    "sa_loc_only": "FALSE"
  },
  {
    "id": 149,
    "search_name_en": "Hjeij - Haji Kanli - Raju - Afrin --- (((149)))",
    "search_name_ar_short": "الحجيج_حجي كانلي (((149)))",
    "search_name_ar": "الحجيج_حجي كانلي - راجو - عفرين --- (((149)))",
    "closest_geonames_post_code": "C1485",
    "old_sa_name": "",
    "lat": 36.64388004,
    "lon": 36.65113117,
    "sa_loc_only": "FALSE"
  },
  {
    "id": 150,
    "search_name_en": "Jablieh - Tag Obeh Si - Raju - Afrin --- (((150)))",
    "search_name_ar_short": "الجبلية_طاغ أوبه سي (((150)))",
    "search_name_ar": "الجبلية_طاغ أوبه سي - راجو - عفرين --- (((150)))",
    "closest_geonames_post_code": "C1475",
    "old_sa_name": "",
    "lat": 36.65747026,
    "lon": 36.77588103,
    "sa_loc_only": "FALSE"
  },
  {
    "id": 151,
    "search_name_en": "Jalqama - Raju - Afrin --- (((151)))",
    "search_name_ar_short": "جلقمة (((151)))",
    "search_name_ar": "جلقمة - راجو - عفرين --- (((151)))",
    "closest_geonames_post_code": "C1477",
    "old_sa_name": "",
    "lat": 36.67026806,
    "lon": 36.72466013,
    "sa_loc_only": "FALSE"
  },
  {
    "id": 152,
    "search_name_en": "Janjaleh - Raju - Afrin --- (((152)))",
    "search_name_ar_short": "جنجلة (((152)))",
    "search_name_ar": "جنجلة - راجو - عفرين --- (((152)))",
    "closest_geonames_post_code": "C1476",
    "old_sa_name": "",
    "lat": 36.70479888,
    "lon": 36.70812754,
    "sa_loc_only": "FALSE"
  },
  {
    "id": 153,
    "search_name_en": "Koran Afrin - Raju - Afrin --- (((153)))",
    "search_name_ar_short": "كوران عفرين (((153)))",
    "search_name_ar": "كوران عفرين - راجو - عفرين --- (((153)))",
    "closest_geonames_post_code": "C1492",
    "old_sa_name": "",
    "lat": 36.67987283,
    "lon": 36.70358395,
    "sa_loc_only": "FALSE"
  },
  {
    "id": 154,
    "search_name_en": "Kusan - Raju - Afrin --- (((154)))",
    "search_name_ar_short": "كوسان (((154)))",
    "search_name_ar": "كوسان - راجو - عفرين --- (((154)))",
    "closest_geonames_post_code": "C1490",
    "old_sa_name": "",
    "lat": 36.81070263,
    "lon": 36.71746161,
    "sa_loc_only": "FALSE"
  },
  {
    "id": 155,
    "search_name_en": "Little Siwan - Little Jaqmaq - Raju - Afrin --- (((155)))",
    "search_name_ar_short": "الصوان الصغير_جقمق صغير (((155)))",
    "search_name_ar": "الصوان الصغير_جقمق صغير - راجو - عفرين --- (((155)))",
    "closest_geonames_post_code": "C1470",
    "old_sa_name": "",
    "lat": 36.70988248,
    "lon": 36.71855908,
    "sa_loc_only": "FALSE"
  },
  {
    "id": 156,
    "search_name_en": "Lower Dhak - Kolyan - Raju - Afrin --- (((156)))",
    "search_name_ar_short": "الضحاك التحتاني_كوليان (((156)))",
    "search_name_ar": "الضحاك التحتاني_كوليان - راجو - عفرين --- (((156)))",
    "closest_geonames_post_code": "C1474",
    "old_sa_name": "",
    "lat": 36.64769952,
    "lon": 36.73153884,
    "sa_loc_only": "FALSE"
  },
  {
    "id": 157,
    "search_name_en": "Maamel - Oshagi - Raju - Afrin --- (((157)))",
    "search_name_ar_short": "المعامل_أوشاغي (((157)))",
    "search_name_ar": "المعامل_أوشاغي - راجو - عفرين --- (((157)))",
    "closest_geonames_post_code": "C1457",
    "old_sa_name": "",
    "lat": 36.59789748,
    "lon": 36.63652825,
    "sa_loc_only": "FALSE"
  },
  {
    "id": 158,
    "search_name_en": "Masikan - Raju - Afrin --- (((158)))",
    "search_name_ar_short": "ماسيكان (((158)))",
    "search_name_ar": "ماسيكان - راجو - عفرين --- (((158)))",
    "closest_geonames_post_code": "C1491",
    "old_sa_name": "",
    "lat": 36.6906449,
    "lon": 36.6558198,
    "sa_loc_only": "FALSE"
  },
  {
    "id": 159,
    "search_name_en": "Meidan Ekbis - Raju - Afrin --- (((159)))",
    "search_name_ar_short": "ميدان أكبس (((159)))",
    "search_name_ar": "ميدان أكبس - راجو - عفرين --- (((159)))",
    "closest_geonames_post_code": "C1488",
    "old_sa_name": "",
    "lat": 36.82137214,
    "lon": 36.67815558,
    "sa_loc_only": "FALSE"
  },
  {
    "id": 160,
    "search_name_en": "Murtafiah - Raju - Raju - Afrin --- (((160)))",
    "search_name_ar_short": "المرتفعة_قودة كوي (((160)))",
    "search_name_ar": "المرتفعة_قودة كوي - راجو - عفرين --- (((160)))",
    "closest_geonames_post_code": "C1460",
    "old_sa_name": "",
    "lat": 36.61913922,
    "lon": 36.64334348,
    "sa_loc_only": "FALSE"
  },
  {
    "id": 161,
    "search_name_en": "Musiyeh - Oba Si - Raju - Afrin --- (((161)))",
    "search_name_ar_short": "موسيه_أوبه سي (((161)))",
    "search_name_ar": "موسيه_أوبه سي - راجو - عفرين --- (((161)))",
    "closest_geonames_post_code": "C1487",
    "old_sa_name": "",
    "lat": 36.64898156,
    "lon": 36.67890372,
    "sa_loc_only": "FALSE"
  },
  {
    "id": 162,
    "search_name_en": "Omar - Omar Oshaghi - Raju - Afrin --- (((162)))",
    "search_name_ar_short": "عمر_عمر أوشاغي (((162)))",
    "search_name_ar": "عمر_عمر أوشاغي - راجو - عفرين --- (((162)))",
    "closest_geonames_post_code": "C1461",
    "old_sa_name": "",
    "lat": 36.60477034,
    "lon": 36.62512651,
    "sa_loc_only": "FALSE"
  },
  {
    "id": 163,
    "search_name_en": "Omsiya - Donbaly - Raju - Afrin --- (((163)))",
    "search_name_ar_short": "الأمسية_دونبللي (((163)))",
    "search_name_ar": "الأمسية_دونبللي - راجو - عفرين --- (((163)))",
    "closest_geonames_post_code": "C1486",
    "old_sa_name": "",
    "lat": 36.61016938,
    "lon": 36.67978614,
    "sa_loc_only": "FALSE"
  },
  {
    "id": 164,
    "search_name_en": "Qalam - Bandrak - Raju - Afrin --- (((164)))",
    "search_name_ar_short": "القلم_بندرك (((164)))",
    "search_name_ar": "القلم_بندرك - راجو - عفرين --- (((164)))",
    "closest_geonames_post_code": "C1480",
    "old_sa_name": "",
    "lat": 36.81791364,
    "lon": 36.72411506,
    "sa_loc_only": "FALSE"
  },
  {
    "id": 165,
    "search_name_en": "Raee - Jobanli - Raju - Afrin --- (((165)))",
    "search_name_ar_short": "الراعي_جوبانلي (((165)))",
    "search_name_ar": "الراعي_جوبانلي - راجو - عفرين --- (((165)))",
    "closest_geonames_post_code": "C1462",
    "old_sa_name": "",
    "lat": 36.69795431,
    "lon": 36.73435689,
    "sa_loc_only": "FALSE"
  },
  {
    "id": 166,
    "search_name_en": "Raju - Raju - Afrin --- (((166)))",
    "search_name_ar_short": "راجو (((166)))",
    "search_name_ar": "راجو - راجو - عفرين --- (((166)))",
    "closest_geonames_post_code": "C1484",
    "old_sa_name": "",
    "lat": 36.67696944,
    "lon": 36.6645186,
    "sa_loc_only": "FALSE"
  },
  {
    "id": 167,
    "search_name_en": "Shankal - Raju - Afrin --- (((167)))",
    "search_name_ar_short": "شنكل (((167)))",
    "search_name_ar": "شنكل - راجو - عفرين --- (((167)))",
    "closest_geonames_post_code": "C1482",
    "old_sa_name": "",
    "lat": 36.81160269,
    "lon": 36.74232169,
    "sa_loc_only": "FALSE"
  },
  {
    "id": 168,
    "search_name_en": "Sheikh Mohammed - Raju - Afrin --- (((168)))",
    "search_name_ar_short": "شيخ محمد (((168)))",
    "search_name_ar": "شيخ محمد - راجو - عفرين --- (((168)))",
    "closest_geonames_post_code": "C1453",
    "old_sa_name": "",
    "lat": 36.78889611,
    "lon": 36.70962097,
    "sa_loc_only": "FALSE"
  },
  {
    "id": 169,
    "search_name_en": "Shekh Bilal - Raju - Afrin --- (((169)))",
    "search_name_ar_short": "شيخ بلال (((169)))",
    "search_name_ar": "شيخ بلال - راجو - عفرين --- (((169)))",
    "closest_geonames_post_code": "C6402",
    "old_sa_name": "",
    "lat": 36.66055613,
    "lon": 36.71772438,
    "sa_loc_only": "FALSE"
  },
  {
    "id": 170,
    "search_name_en": "Shyukh - Sheikh Oba Si - Raju - Afrin --- (((170)))",
    "search_name_ar_short": "الشيوخ_شيخ أوبه سي (((170)))",
    "search_name_ar": "الشيوخ_شيخ أوبه سي - راجو - عفرين --- (((170)))",
    "closest_geonames_post_code": "C1450",
    "old_sa_name": "",
    "lat": 36.66330542,
    "lon": 36.74981298,
    "sa_loc_only": "FALSE"
  },
  {
    "id": 171,
    "search_name_en": "Talleh - Zarkani - Raju - Afrin --- (((171)))",
    "search_name_ar_short": "الطلة_زركانلي (((171)))",
    "search_name_ar": "الطلة_زركانلي - راجو - عفرين --- (((171)))",
    "closest_geonames_post_code": "C1483",
    "old_sa_name": "",
    "lat": 36.70307544,
    "lon": 36.74090233,
    "sa_loc_only": "FALSE"
  },
  {
    "id": 172,
    "search_name_en": "Taqiyeh - Kamrash - Raju - Afrin --- (((172)))",
    "search_name_ar_short": "الطاقية_كمرش (((172)))",
    "search_name_ar": "الطاقية_كمرش - راجو - عفرين --- (((172)))",
    "closest_geonames_post_code": "C1464",
    "old_sa_name": "",
    "lat": 36.62766781,
    "lon": 36.62389744,
    "sa_loc_only": "FALSE"
  },
  {
    "id": 173,
    "search_name_en": "Thadi - Mamali - Raju - Afrin --- (((173)))",
    "search_name_ar_short": "الثدي_مامالي (((173)))",
    "search_name_ar": "الثدي_مامالي - راجو - عفرين --- (((173)))",
    "closest_geonames_post_code": "C1472",
    "old_sa_name": "",
    "lat": 36.70156088,
    "lon": 36.67088942,
    "sa_loc_only": "FALSE"
  },
  {
    "id": 174,
    "search_name_en": "Tholathiyeh - Raju - Afrin --- (((174)))",
    "search_name_ar_short": "الثلاثية (((174)))",
    "search_name_ar": "الثلاثية - راجو - عفرين --- (((174)))",
    "closest_geonames_post_code": "C1469",
    "old_sa_name": "",
    "lat": 36.78418824,
    "lon": 36.69717534,
    "sa_loc_only": "FALSE"
  },
  {
    "id": 175,
    "search_name_en": "Upper Dhak - Upper Kolyan - Raju - Afrin --- (((175)))",
    "search_name_ar_short": "الضحاك فوقاني_كوليان فوقاني (((175)))",
    "search_name_ar": "الضحاك فوقاني_كوليان فوقاني - راجو - عفرين --- (((175)))",
    "closest_geonames_post_code": "C1466",
    "old_sa_name": "",
    "lat": 36.64832537,
    "lon": 36.71647005,
    "sa_loc_only": "FALSE"
  },
  {
    "id": 176,
    "search_name_en": "Ali Bazan - Sharan - Afrin --- (((176)))",
    "search_name_ar_short": "علي بازان (((176)))",
    "search_name_ar": "علي بازان - شران - عفرين --- (((176)))",
    "closest_geonames_post_code": "C1512",
    "old_sa_name": "",
    "lat": 36.6520456,
    "lon": 36.91948213,
    "sa_loc_only": "FALSE"
  },
  {
    "id": 177,
    "search_name_en": "Amud - Sharan - Sharan - Afrin --- (((177)))",
    "search_name_ar_short": "العمود (((177)))",
    "search_name_ar": "العمود - شران - عفرين --- (((177)))",
    "closest_geonames_post_code": "C1511",
    "old_sa_name": "",
    "lat": 36.66274052,
    "lon": 37.01483838,
    "sa_loc_only": "FALSE"
  },
  {
    "id": 178,
    "search_name_en": "Bafelyun - Sharan - Afrin --- (((178)))",
    "search_name_ar_short": "بافليون (((178)))",
    "search_name_ar": "بافليون - شران - عفرين --- (((178)))",
    "closest_geonames_post_code": "C1507",
    "old_sa_name": "",
    "lat": 36.61099339,
    "lon": 36.9815328,
    "sa_loc_only": "FALSE"
  },
  {
    "id": 179,
    "search_name_en": "Bayaa - Sharan - Afrin --- (((179)))",
    "search_name_ar_short": "البياعة (((179)))",
    "search_name_ar": "البياعة - شران - عفرين --- (((179)))",
    "closest_geonames_post_code": "C1503",
    "old_sa_name": "",
    "lat": 36.69470765,
    "lon": 36.97276503,
    "sa_loc_only": "FALSE"
  },
  {
    "id": 180,
    "search_name_en": "Big Bostan - Sharan - Afrin --- (((180)))",
    "search_name_ar_short": "البستان الكبير (((180)))",
    "search_name_ar": "البستان الكبير - شران - عفرين --- (((180)))",
    "closest_geonames_post_code": "C1496",
    "old_sa_name": "",
    "lat": 36.65841101,
    "lon": 36.92334742,
    "sa_loc_only": "FALSE"
  },
  {
    "id": 181,
    "search_name_en": "Big Dib - Sharan - Afrin --- (((181)))",
    "search_name_ar_short": "الديب الكبير (((181)))",
    "search_name_ar": "الديب الكبير - شران - عفرين --- (((181)))",
    "closest_geonames_post_code": "C1513",
    "old_sa_name": "",
    "lat": 36.58077782,
    "lon": 36.8856203,
    "sa_loc_only": "FALSE"
  },
  {
    "id": 182,
    "search_name_en": "Big Hallubi - Sharan - Afrin --- (((182)))",
    "search_name_ar_short": "حلوبي كبير (((182)))",
    "search_name_ar": "حلوبي كبير - شران - عفرين --- (((182)))",
    "closest_geonames_post_code": "C1504",
    "old_sa_name": "",
    "lat": 36.6203087,
    "lon": 36.88046791,
    "sa_loc_only": "FALSE"
  },
  {
    "id": 183,
    "search_name_en": "Dama - Ayki Dam - Sharan - Afrin --- (((183)))",
    "search_name_ar_short": "دامة_أيكي دام (((183)))",
    "search_name_ar": "دامة_أيكي دام - شران - عفرين --- (((183)))",
    "closest_geonames_post_code": "C1495",
    "old_sa_name": "",
    "lat": 36.73056281,
    "lon": 37.02949722,
    "sa_loc_only": "FALSE"
  },
  {
    "id": 184,
    "search_name_en": "Deir Siwan - Sharan - Afrin --- (((184)))",
    "search_name_ar_short": "ديرصوان (((184)))",
    "search_name_ar": "ديرصوان - شران - عفرين --- (((184)))",
    "closest_geonames_post_code": "C1494",
    "old_sa_name": "",
    "lat": 36.71465393,
    "lon": 36.99504593,
    "sa_loc_only": "FALSE"
  },
  {
    "id": 185,
    "search_name_en": "Doha - Sharan - Sharan - Afrin --- (((185)))",
    "search_name_ar_short": "الضحى (((185)))",
    "search_name_ar": "الضحى - شران - عفرين --- (((185)))",
    "closest_geonames_post_code": "C1515",
    "old_sa_name": "",
    "lat": 36.59573949,
    "lon": 36.93064782,
    "sa_loc_only": "FALSE"
  },
  {
    "id": 186,
    "search_name_en": "Doraq - Sharan - Afrin --- (((186)))",
    "search_name_ar_short": "دوراقا (((186)))",
    "search_name_ar": "دوراقا - شران - عفرين --- (((186)))",
    "closest_geonames_post_code": "C1506",
    "old_sa_name": "",
    "lat": 36.70649403,
    "lon": 36.9100956,
    "sa_loc_only": "FALSE"
  },
  {
    "id": 187,
    "search_name_en": "Jiman - Sharan - Afrin --- (((187)))",
    "search_name_ar_short": "جمان (((187)))",
    "search_name_ar": "جمان - شران - عفرين --- (((187)))",
    "closest_geonames_post_code": "C1493",
    "old_sa_name": "",
    "lat": 36.64706395,
    "lon": 36.93966278,
    "sa_loc_only": "FALSE"
  },
  {
    "id": 188,
    "search_name_en": "Kafr Janna - Sharan - Afrin --- (((188)))",
    "search_name_ar_short": "كفر جنة (((188)))",
    "search_name_ar": "كفر جنة - شران - عفرين --- (((188)))",
    "closest_geonames_post_code": "C1518",
    "old_sa_name": "",
    "lat": 36.58407261,
    "lon": 36.94967402,
    "sa_loc_only": "FALSE"
  },
  {
    "id": 189,
    "search_name_en": "Kafroum - Sharan - Afrin --- (((189)))",
    "search_name_ar_short": "كفرروم (((189)))",
    "search_name_ar": "كفرروم - شران - عفرين --- (((189)))",
    "closest_geonames_post_code": "C1522",
    "old_sa_name": "",
    "lat": 36.59032502,
    "lon": 36.85918782,
    "sa_loc_only": "FALSE"
  },
  {
    "id": 190,
    "search_name_en": "Little Dib - Sharan - Afrin --- (((190)))",
    "search_name_ar_short": "الديب الصغير (((190)))",
    "search_name_ar": "الديب الصغير - شران - عفرين --- (((190)))",
    "closest_geonames_post_code": "C1516",
    "old_sa_name": "",
    "lat": 36.57028347,
    "lon": 36.88308438,
    "sa_loc_only": "FALSE"
  },
  {
    "id": 191,
    "search_name_en": "Little Hallubi - Sharan - Afrin --- (((191)))",
    "search_name_ar_short": "حلوبي صغير (((191)))",
    "search_name_ar": "حلوبي صغير - شران - عفرين --- (((191)))",
    "closest_geonames_post_code": "C1501",
    "old_sa_name": "",
    "lat": 36.60360531,
    "lon": 36.88533173,
    "sa_loc_only": "FALSE"
  },
  {
    "id": 192,
    "search_name_en": "Marsawa - Sharan - Afrin --- (((192)))",
    "search_name_ar_short": "مرساوا (((192)))",
    "search_name_ar": "مرساوا - شران - عفرين --- (((192)))",
    "closest_geonames_post_code": "C1523",
    "old_sa_name": "",
    "lat": 36.76298068,
    "lon": 36.95359411,
    "sa_loc_only": "FALSE"
  },
  {
    "id": 193,
    "search_name_en": "Mashaala - Sharan - Afrin --- (((193)))",
    "search_name_ar_short": "مشعلة (((193)))",
    "search_name_ar": "مشعلة - شران - عفرين --- (((193)))",
    "closest_geonames_post_code": "C1520",
    "old_sa_name": "",
    "lat": 36.57859546,
    "lon": 36.92994502,
    "sa_loc_only": "FALSE"
  },
  {
    "id": 194,
    "search_name_en": "Maydan Afrin - Sharan - Afrin --- (((194)))",
    "search_name_ar_short": "الميدان عفرين (((194)))",
    "search_name_ar": "الميدان عفرين - شران - عفرين --- (((194)))",
    "closest_geonames_post_code": "C1505",
    "old_sa_name": "",
    "lat": 36.64226643,
    "lon": 36.88200719,
    "sa_loc_only": "FALSE"
  },
  {
    "id": 195,
    "search_name_en": "Mhabbaba - Naz Oshaghi - Sharan - Afrin --- (((195)))",
    "search_name_ar_short": "المحببة_ناز أوشاغي (((195)))",
    "search_name_ar": "المحببة_ناز أوشاغي - شران - عفرين --- (((195)))",
    "closest_geonames_post_code": "C1502",
    "old_sa_name": "",
    "lat": 36.6603708,
    "lon": 36.87211984,
    "sa_loc_only": "FALSE"
  },
  {
    "id": 196,
    "search_name_en": "Omariyeh Afrin - Sharan - Afrin --- (((196)))",
    "search_name_ar_short": "العمرية عفرين (((196)))",
    "search_name_ar": "العمرية عفرين - شران - عفرين --- (((196)))",
    "closest_geonames_post_code": "C1510",
    "old_sa_name": "",
    "lat": 36.6587218,
    "lon": 36.95618788,
    "sa_loc_only": "FALSE"
  },
  {
    "id": 197,
    "search_name_en": "Qarra - Sharan - Sharan - Afrin --- (((197)))",
    "search_name_ar_short": "القارة (((197)))",
    "search_name_ar": "القارة - شران - عفرين --- (((197)))",
    "closest_geonames_post_code": "C1509",
    "old_sa_name": "",
    "lat": 36.67403245,
    "lon": 36.90130941,
    "sa_loc_only": "FALSE"
  },
  {
    "id": 198,
    "search_name_en": "Qastal (Sharan) - Sharan - Afrin --- (((198)))",
    "search_name_ar_short": "القسطل (((198)))",
    "search_name_ar": "القسطل - شران - شران - عفرين --- (((198)))",
    "closest_geonames_post_code": "C1514",
    "old_sa_name": "",
    "lat": 36.54902992,
    "lon": 36.87798752,
    "sa_loc_only": "FALSE"
  },
  {
    "id": 199,
    "search_name_en": "Qastal Jend - Sharan - Afrin --- (((199)))",
    "search_name_ar_short": "قسطل جند (((199)))",
    "search_name_ar": "قسطل جند - شران - عفرين --- (((199)))",
    "closest_geonames_post_code": "C1521",
    "old_sa_name": "",
    "lat": 36.63204409,
    "lon": 37.01785429,
    "sa_loc_only": "FALSE"
  },
  {
    "id": 200,
    "search_name_en": "Qatireh - Sharan - Afrin --- (((200)))",
    "search_name_ar_short": "قطيرة (((200)))",
    "search_name_ar": "قطيرة - شران - عفرين --- (((200)))",
    "closest_geonames_post_code": "C1519",
    "old_sa_name": "",
    "lat": 36.62593637,
    "lon": 36.90866106,
    "sa_loc_only": "FALSE"
  },
  {
    "id": 201,
    "search_name_en": "Qatmet Efrin - Sharan - Afrin --- (((201)))",
    "search_name_ar_short": "قاطمة عفرين (((201)))",
    "search_name_ar": "قاطمة عفرين - شران - عفرين --- (((201)))",
    "closest_geonames_post_code": "C1524",
    "old_sa_name": "",
    "lat": 36.58721582,
    "lon": 36.96311574,
    "sa_loc_only": "FALSE"
  },
  {
    "id": 202,
    "search_name_en": "Ser - Sarnjak - Sharan - Afrin --- (((202)))",
    "search_name_ar_short": "السعر_سعرنجاك (((202)))",
    "search_name_ar": "السعر_سعرنجاك - شران - عفرين --- (((202)))",
    "closest_geonames_post_code": "C1508",
    "old_sa_name": "",
    "lat": 36.7257834,
    "lon": 36.9112553,
    "sa_loc_only": "FALSE"
  },
  {
    "id": 203,
    "search_name_en": "Sharan (Sharan) - Sharan - Afrin --- (((203)))",
    "search_name_ar_short": "شران (((203)))",
    "search_name_ar": "شران - شران - شران - عفرين --- (((203)))",
    "closest_geonames_post_code": "C1497",
    "old_sa_name": "",
    "lat": 36.62130771,
    "lon": 36.94160008,
    "sa_loc_only": "FALSE"
  },
  {
    "id": 204,
    "search_name_en": "Sim Omariyeh - Sharan - Afrin --- (((204)))",
    "search_name_ar_short": "السيم_العمرية (((204)))",
    "search_name_ar": "السيم_العمرية - شران - عفرين --- (((204)))",
    "closest_geonames_post_code": "C1517",
    "old_sa_name": "",
    "lat": 36.73401415,
    "lon": 36.92864611,
    "sa_loc_only": "FALSE"
  },
  {
    "id": 205,
    "search_name_en": "Tal Elosud - Sharan - Afrin --- (((205)))",
    "search_name_ar_short": "تل الاسود (((205)))",
    "search_name_ar": "تل الاسود - شران - عفرين --- (((205)))",
    "closest_geonames_post_code": "C1498",
    "old_sa_name": "",
    "lat": 36.55459173,
    "lon": 36.89493148,
    "sa_loc_only": "FALSE"
  },
  {
    "id": 206,
    "search_name_en": "Yiji - Sharan - Afrin --- (((206)))",
    "search_name_ar_short": "اليجي (((206)))",
    "search_name_ar": "اليجي - شران - عفرين --- (((206)))",
    "closest_geonames_post_code": "C1500",
    "old_sa_name": "",
    "lat": 36.6797289,
    "lon": 36.92261553,
    "sa_loc_only": "FALSE"
  },
  {
    "id": 207,
    "search_name_en": "Zaytuneh - Sharan - Sharan - Afrin --- (((207)))",
    "search_name_ar_short": "زيتونة (((207)))",
    "search_name_ar": "زيتونة - شران - عفرين --- (((207)))",
    "closest_geonames_post_code": "C1499",
    "old_sa_name": "",
    "lat": 36.72564665,
    "lon": 36.942706,
    "sa_loc_only": "FALSE"
  },
  {
    "id": 208,
    "search_name_en": "Alwardya (Sheikh El-Hadid) - Sheikh El-Hadid - Afrin --- (((208)))",
    "search_name_ar_short": "الوردية (((208)))",
    "search_name_ar": "الوردية - شيخ الحديد - شيخ الحديد - عفرين --- (((208)))",
    "closest_geonames_post_code": "C6405",
    "old_sa_name": "",
    "lat": 36.57720292,
    "lon": 36.63607911,
    "sa_loc_only": "FALSE"
  },
  {
    "id": 209,
    "search_name_en": "Anqala - Sheikh El-Hadid - Afrin --- (((209)))",
    "search_name_ar_short": "انقلة (((209)))",
    "search_name_ar": "انقلة - شيخ الحديد - عفرين --- (((209)))",
    "closest_geonames_post_code": "C1528",
    "old_sa_name": "",
    "lat": 36.46217277,
    "lon": 36.60668446,
    "sa_loc_only": "FALSE"
  },
  {
    "id": 210,
    "search_name_en": "Darmash - Darmashkanli - Sheikh El-Hadid - Afrin --- (((210)))",
    "search_name_ar_short": "درمش_درمشكانلي (((210)))",
    "search_name_ar": "درمش_درمشكانلي - شيخ الحديد - عفرين --- (((210)))",
    "closest_geonames_post_code": "C1531",
    "old_sa_name": "",
    "lat": 36.52789417,
    "lon": 36.65564127,
    "sa_loc_only": "FALSE"
  },
  {
    "id": 211,
    "search_name_en": "Kalanli - Sheikh El-Hadid - Afrin --- (((211)))",
    "search_name_ar_short": "كلانلي (((211)))",
    "search_name_ar": "كلانلي - شيخ الحديد - عفرين --- (((211)))",
    "closest_geonames_post_code": "C6406",
    "old_sa_name": "",
    "lat": 36.55060817,
    "lon": 36.64263626,
    "sa_loc_only": "FALSE"
  },
  {
    "id": 212,
    "search_name_en": "Khazafiyeh - Qorret Matlaq - Sheikh El-Hadid - Afrin --- (((212)))",
    "search_name_ar_short": "خزفية_قرة متلق (((212)))",
    "search_name_ar": "خزفية_قرة متلق - شيخ الحديد - عفرين --- (((212)))",
    "closest_geonames_post_code": "C1527",
    "old_sa_name": "",
    "lat": 36.52280815,
    "lon": 36.57064479,
    "sa_loc_only": "FALSE"
  },
  {
    "id": 213,
    "search_name_en": "Maghar - Maghar Jeq - Sheikh El-Hadid - Afrin --- (((213)))",
    "search_name_ar_short": "مغار_مغار جق (((213)))",
    "search_name_ar": "مغار_مغار جق - شيخ الحديد - عفرين --- (((213)))",
    "closest_geonames_post_code": "C1533",
    "old_sa_name": "",
    "lat": 36.53451526,
    "lon": 36.65866099,
    "sa_loc_only": "FALSE"
  },
  {
    "id": 214,
    "search_name_en": "Mazineh - Aranda - Sheikh El-Hadid - Afrin --- (((214)))",
    "search_name_ar_short": "المزينة_أرندة (((214)))",
    "search_name_ar": "المزينة_أرندة - شيخ الحديد - عفرين --- (((214)))",
    "closest_geonames_post_code": "C1530",
    "old_sa_name": "",
    "lat": 36.53067187,
    "lon": 36.62263971,
    "sa_loc_only": "FALSE"
  },
  {
    "id": 215,
    "search_name_en": "Mostakan - Sheikh El-Hadid - Afrin --- (((215)))",
    "search_name_ar_short": "مستكان (((215)))",
    "search_name_ar": "مستكان - شيخ الحديد - عفرين --- (((215)))",
    "closest_geonames_post_code": "C1534",
    "old_sa_name": "",
    "lat": 36.54230055,
    "lon": 36.61835699,
    "sa_loc_only": "FALSE"
  },
  {
    "id": 216,
    "search_name_en": "Sheikh El-Hadid - Sheikh El-Hadid - Afrin --- (((216)))",
    "search_name_ar_short": "شيخ الحديد (((216)))",
    "search_name_ar": "شيخ الحديد - شيخ الحديد - عفرين --- (((216)))",
    "closest_geonames_post_code": "C1525",
    "old_sa_name": "",
    "lat": 36.50163891,
    "lon": 36.59919947,
    "sa_loc_only": "FALSE"
  },
  {
    "id": 217,
    "search_name_en": "Sinnara - Sheikh El-Hadid - Afrin --- (((217)))",
    "search_name_ar_short": "سنارة (((217)))",
    "search_name_ar": "سنارة - شيخ الحديد - عفرين --- (((217)))",
    "closest_geonames_post_code": "C1529",
    "old_sa_name": "",
    "lat": 36.46906401,
    "lon": 36.60667578,
    "sa_loc_only": "FALSE"
  },
  {
    "id": 218,
    "search_name_en": "Tal Elthaaleb - Sheikh Jqali - Sheikh El-Hadid - Afrin --- (((218)))",
    "search_name_ar_short": "تل الثعالب_شيخ جقاللي (((218)))",
    "search_name_ar": "تل الثعالب_شيخ جقاللي - شيخ الحديد - عفرين --- (((218)))",
    "closest_geonames_post_code": "C1526",
    "old_sa_name": "",
    "lat": 36.55719252,
    "lon": 36.61328768,
    "sa_loc_only": "FALSE"
  },
  {
    "id": 219,
    "search_name_en": "Wadi Elthaalab - Lower Jqal - Sheikh El-Hadid - Afrin --- (((219)))",
    "search_name_ar_short": "وادي الثعالب_جقال تحتاني (((219)))",
    "search_name_ar": "وادي الثعالب_جقال تحتاني - شيخ الحديد - عفرين --- (((219)))",
    "closest_geonames_post_code": "C1532",
    "old_sa_name": "",
    "lat": 36.55444945,
    "lon": 36.60211416,
    "sa_loc_only": "FALSE"
  },
  {
    "id": 220,
    "search_name_en": "Ain Al Arab - Ain al Arab - Ain Al Arab --- (((220)))",
    "search_name_ar_short": "عين العرب (((220)))",
    "search_name_ar": "عين العرب - مركز عين العرب - عين العرب --- (((220)))",
    "closest_geonames_post_code": "C1946",
    "old_sa_name": "حلب : عين العرب",
    "lat": 36.8891419,
    "lon": 38.35207761,
    "sa_loc_only": "FALSE"
  },
  {
    "id": 221,
    "search_name_en": "Ayoubiyeh - Karoz - Ain al Arab - Ain Al Arab --- (((221)))",
    "search_name_ar_short": "الأيوبية_كاروز (((221)))",
    "search_name_ar": "الأيوبية_كاروز - مركز عين العرب - عين العرب --- (((221)))",
    "closest_geonames_post_code": "C1970",
    "old_sa_name": "",
    "lat": 36.72698183,
    "lon": 38.47707505,
    "sa_loc_only": "FALSE"
  },
  {
    "id": 222,
    "search_name_en": "Aziziyeh - Moman Azu - Ain al Arab - Ain Al Arab --- (((222)))",
    "search_name_ar_short": "عزيزية_مومان عزو (((222)))",
    "search_name_ar": "عزيزية_مومان عزو - مركز عين العرب - عين العرب --- (((222)))",
    "closest_geonames_post_code": "C1974",
    "old_sa_name": "",
    "lat": 36.87154359,
    "lon": 38.29076179,
    "sa_loc_only": "FALSE"
  },
  {
    "id": 223,
    "search_name_en": "Babn - Boban - Ain al Arab - Ain Al Arab --- (((223)))",
    "search_name_ar_short": "بابان_بوبان (((223)))",
    "search_name_ar": "بابان_بوبان - مركز عين العرب - عين العرب --- (((223)))",
    "closest_geonames_post_code": "C1966",
    "old_sa_name": "",
    "lat": 36.89551422,
    "lon": 38.19647322,
    "sa_loc_only": "FALSE"
  },
  {
    "id": 224,
    "search_name_en": "Big Doha - Big Qabajeq - Ain al Arab - Ain Al Arab --- (((224)))",
    "search_name_ar_short": "دوحة كبير_قباجق كبير (((224)))",
    "search_name_ar": "دوحة كبير_قباجق كبير - مركز عين العرب - عين العرب --- (((224)))",
    "closest_geonames_post_code": "C1978",
    "old_sa_name": "",
    "lat": 36.82210172,
    "lon": 38.4809933,
    "sa_loc_only": "FALSE"
  },
  {
    "id": 225,
    "search_name_en": "Big Ein Elbat - Ain al Arab - Ain Al Arab --- (((225)))",
    "search_name_ar_short": "عين البط كبير (((225)))",
    "search_name_ar": "عين البط كبير - مركز عين العرب - عين العرب --- (((225)))",
    "closest_geonames_post_code": "C1957",
    "old_sa_name": "",
    "lat": 36.82339417,
    "lon": 38.52757744,
    "sa_loc_only": "FALSE"
  },
  {
    "id": 226,
    "search_name_en": "Big Mazraet Sofi - Ain al Arab - Ain Al Arab --- (((226)))",
    "search_name_ar_short": "مزرعة صوفي كبير (((226)))",
    "search_name_ar": "مزرعة صوفي كبير - مركز عين العرب - عين العرب --- (((226)))",
    "closest_geonames_post_code": "C1981",
    "old_sa_name": "",
    "lat": 36.80267649,
    "lon": 38.35031348,
    "sa_loc_only": "FALSE"
  },
  {
    "id": 227,
    "search_name_en": "Big Salama - Big Danquz - Ain al Arab - Ain Al Arab --- (((227)))",
    "search_name_ar_short": "سلامة كبير_دونقوز كبير (((227)))",
    "search_name_ar": "سلامة كبير_دونقوز كبير - مركز عين العرب - عين العرب --- (((227)))",
    "closest_geonames_post_code": "C1942",
    "old_sa_name": "",
    "lat": 36.7509191,
    "lon": 38.27550158,
    "sa_loc_only": "FALSE"
  },
  {
    "id": 228,
    "search_name_en": "Bijan Tramk - Ain al Arab - Ain Al Arab --- (((228)))",
    "search_name_ar_short": "بيجان_ترمك (((228)))",
    "search_name_ar": "بيجان_ترمك - مركز عين العرب - عين العرب --- (((228)))",
    "closest_geonames_post_code": "C1961",
    "old_sa_name": "",
    "lat": 36.87217687,
    "lon": 38.3474886,
    "sa_loc_only": "FALSE"
  },
  {
    "id": 229,
    "search_name_en": "Bir Omar - Ain al Arab - Ain Al Arab --- (((229)))",
    "search_name_ar_short": "بئر عمر (((229)))",
    "search_name_ar": "بئر عمر - مركز عين العرب - عين العرب --- (((229)))",
    "closest_geonames_post_code": "C1959",
    "old_sa_name": "",
    "lat": 36.74545744,
    "lon": 38.57029342,
    "sa_loc_only": "FALSE"
  },
  {
    "id": 230,
    "search_name_en": "Estiqama - Ain al Arab - Ain Al Arab --- (((230)))",
    "search_name_ar_short": "الاستقامة_كوربا (((230)))",
    "search_name_ar": "الاستقامة_كوربا - مركز عين العرب - عين العرب --- (((230)))",
    "closest_geonames_post_code": "C1975",
    "old_sa_name": "",
    "lat": 36.89907317,
    "lon": 38.26683917,
    "sa_loc_only": "FALSE"
  },
  {
    "id": 231,
    "search_name_en": "Firazdaq - Arsalan Tash - Ain al Arab - Ain Al Arab --- (((231)))",
    "search_name_ar_short": "الفرزدق_أرسلان طاش (((231)))",
    "search_name_ar": "الفرزدق_أرسلان طاش - مركز عين العرب - عين العرب --- (((231)))",
    "closest_geonames_post_code": "C1954",
    "old_sa_name": "",
    "lat": 36.84886194,
    "lon": 38.41052462,
    "sa_loc_only": "FALSE"
  },
  {
    "id": 232,
    "search_name_en": "Gharib - Ain al Arab - Ain Al Arab --- (((232)))",
    "search_name_ar_short": "غريب (((232)))",
    "search_name_ar": "غريب - مركز عين العرب - عين العرب --- (((232)))",
    "closest_geonames_post_code": "C1943",
    "old_sa_name": "",
    "lat": 36.85121614,
    "lon": 38.51449579,
    "sa_loc_only": "FALSE"
  },
  {
    "id": 233,
    "search_name_en": "Ghassaniyeh - Qorret Halanj - Ain al Arab - Ain Al Arab --- (((233)))",
    "search_name_ar_short": "الغسانية_قرة حلنج (((233)))",
    "search_name_ar": "الغسانية_قرة حلنج - مركز عين العرب - عين العرب --- (((233)))",
    "closest_geonames_post_code": "C1971",
    "old_sa_name": "",
    "lat": 36.85391359,
    "lon": 38.37849485,
    "sa_loc_only": "FALSE"
  },
  {
    "id": 234,
    "search_name_en": "Hazineh - Ain al Arab - Ain Al Arab --- (((234)))",
    "search_name_ar_short": "حزينة (((234)))",
    "search_name_ar": "حزينة - مركز عين العرب - عين العرب --- (((234)))",
    "closest_geonames_post_code": "C1963",
    "old_sa_name": "",
    "lat": 36.78084185,
    "lon": 38.34386364,
    "sa_loc_only": "FALSE"
  },
  {
    "id": 235,
    "search_name_en": "Hbab - Yadi Qawi - Ain al Arab - Ain Al Arab --- (((235)))",
    "search_name_ar_short": "الحباب_ يدي قوي (((235)))",
    "search_name_ar": "الحباب_ يدي قوي - مركز عين العرب - عين العرب --- (((235)))",
    "closest_geonames_post_code": "C1976",
    "old_sa_name": "",
    "lat": 36.82539191,
    "lon": 38.31997715,
    "sa_loc_only": "FALSE"
  },
  {
    "id": 236,
    "search_name_en": "Jil Jilak - Ain al Arab - Ain Al Arab --- (((236)))",
    "search_name_ar_short": "جيل_جيلك (((236)))",
    "search_name_ar": "جيل_جيلك - مركز عين العرب - عين العرب --- (((236)))",
    "closest_geonames_post_code": "C1964",
    "old_sa_name": "",
    "lat": 36.81144318,
    "lon": 38.46810436,
    "sa_loc_only": "FALSE"
  },
  {
    "id": 237,
    "search_name_en": "Joban - Sheikh Joban - Ain al Arab - Ain Al Arab --- (((237)))",
    "search_name_ar_short": "جوبان_الشيخ جوبان (((237)))",
    "search_name_ar": "جوبان_الشيخ جوبان - مركز عين العرب - عين العرب --- (((237)))",
    "closest_geonames_post_code": "C1960",
    "old_sa_name": "",
    "lat": 36.77730036,
    "lon": 38.40946098,
    "sa_loc_only": "FALSE"
  },
  {
    "id": 238,
    "search_name_en": "Juqur Gharbi - Ain al Arab - Ain Al Arab --- (((238)))",
    "search_name_ar_short": "جوقر غربي (((238)))",
    "search_name_ar": "جوقر غربي - مركز عين العرب - عين العرب --- (((238)))",
    "closest_geonames_post_code": "C6688",
    "old_sa_name": "",
    "lat": 36.886203,
    "lon": 38.277094,
    "sa_loc_only": "FALSE"
  },
  {
    "id": 239,
    "search_name_en": "Kalmad - Ain al Arab - Ain Al Arab --- (((239)))",
    "search_name_ar_short": "كلمد (((239)))",
    "search_name_ar": "كلمد - مركز عين العرب - عين العرب --- (((239)))",
    "closest_geonames_post_code": "C6341",
    "old_sa_name": "",
    "lat": 36.8472027,
    "lon": 38.31902265,
    "sa_loc_only": "FALSE"
  },
  {
    "id": 240,
    "search_name_en": "Karb Karbalak - Ain al Arab - Ain Al Arab --- (((240)))",
    "search_name_ar_short": "كرب_كربلك (((240)))",
    "search_name_ar": "كرب_كربلك - مركز عين العرب - عين العرب --- (((240)))",
    "closest_geonames_post_code": "C1991",
    "old_sa_name": "",
    "lat": 36.74000654,
    "lon": 38.54888434,
    "sa_loc_only": "FALSE"
  },
  {
    "id": 241,
    "search_name_en": "Kas Kaskan - Ain al Arab - Ain Al Arab --- (((241)))",
    "search_name_ar_short": "كأس_كاسكان (((241)))",
    "search_name_ar": "كأس_كاسكان - مركز عين العرب - عين العرب --- (((241)))",
    "closest_geonames_post_code": "C1992",
    "old_sa_name": "",
    "lat": 36.88365418,
    "lon": 38.43064241,
    "sa_loc_only": "FALSE"
  },
  {
    "id": 242,
    "search_name_en": "Kharab Nas - Ain al Arab - Ain Al Arab --- (((242)))",
    "search_name_ar_short": "خراب ناس (((242)))",
    "search_name_ar": "خراب ناس - مركز عين العرب - عين العرب --- (((242)))",
    "closest_geonames_post_code": "C1967",
    "old_sa_name": "",
    "lat": 36.83022744,
    "lon": 38.55155979,
    "sa_loc_only": "FALSE"
  },
  {
    "id": 243,
    "search_name_en": "Kharab Rasset - Ain al Arab - Ain Al Arab --- (((243)))",
    "search_name_ar_short": "خراب رست (((243)))",
    "search_name_ar": "خراب رست - مركز عين العرب - عين العرب --- (((243)))",
    "closest_geonames_post_code": "C6342",
    "old_sa_name": "",
    "lat": 36.73015126,
    "lon": 38.50568339,
    "sa_loc_only": "FALSE"
  },
  {
    "id": 244,
    "search_name_en": "Kharan Kort - Ain al Arab - Ain Al Arab --- (((244)))",
    "search_name_ar_short": "خراب كورت (((244)))",
    "search_name_ar": "خراب كورت - مركز عين العرب - عين العرب --- (((244)))",
    "closest_geonames_post_code": "C1968",
    "old_sa_name": "",
    "lat": 36.81438118,
    "lon": 38.44816459,
    "sa_loc_only": "FALSE"
  },
  {
    "id": 245,
    "search_name_en": "Little Salameh - Little Danquz - Ain al Arab - Ain Al Arab --- (((245)))",
    "search_name_ar_short": "سلامة صغير_دونقوز صغير (((245)))",
    "search_name_ar": "سلامة صغير_دونقوز صغير - مركز عين العرب - عين العرب --- (((245)))",
    "closest_geonames_post_code": "C1944",
    "old_sa_name": "",
    "lat": 36.76853411,
    "lon": 38.30051015,
    "sa_loc_only": "FALSE"
  },
  {
    "id": 246,
    "search_name_en": "Lower Beith Lehem - Etweiran - Ain al Arab - Ain Al Arab --- (((246)))",
    "search_name_ar_short": "بيت لحم تحتاني__إيتويران (((246)))",
    "search_name_ar": "بيت لحم تحتاني__إيتويران - مركز عين العرب - عين العرب --- (((246)))",
    "closest_geonames_post_code": "C1952",
    "old_sa_name": "",
    "lat": 36.77030132,
    "lon": 38.57631285,
    "sa_loc_only": "FALSE"
  },
  {
    "id": 247,
    "search_name_en": "Lower Jbeileh - Qorrat Quri - Ain al Arab - Ain Al Arab --- (((247)))",
    "search_name_ar_short": "جبيلة تحتاني_قرة قوري (((247)))",
    "search_name_ar": "جبيلة تحتاني_قرة قوري - مركز عين العرب - عين العرب --- (((247)))",
    "closest_geonames_post_code": "C1945",
    "old_sa_name": "",
    "lat": 36.83903707,
    "lon": 38.16543593,
    "sa_loc_only": "FALSE"
  },
  {
    "id": 248,
    "search_name_en": "Lower Tal Abyad - Lower Bozhyuk - Ain al Arab - Ain Al Arab --- (((248)))",
    "search_name_ar_short": "تل ابيض تحتاني_بوزهيوك تحتاني (((248)))",
    "search_name_ar": "تل ابيض تحتاني_بوزهيوك تحتاني - مركز عين العرب - عين العرب --- (((248)))",
    "closest_geonames_post_code": "C1941",
    "old_sa_name": "",
    "lat": 36.70899945,
    "lon": 38.53956165,
    "sa_loc_only": "FALSE"
  },
  {
    "id": 249,
    "search_name_en": "Lower Tal Elhajar - Tashluk - Ain al Arab - Ain Al Arab --- (((249)))",
    "search_name_ar_short": "تل الحجر تحتاني_طاشلوك (((249)))",
    "search_name_ar": "تل الحجر تحتاني_طاشلوك - مركز عين العرب - عين العرب --- (((249)))",
    "closest_geonames_post_code": "C1947",
    "old_sa_name": "",
    "lat": 36.76505905,
    "lon": 38.51962063,
    "sa_loc_only": "FALSE"
  },
  {
    "id": 250,
    "search_name_en": "Makhraj - Ain al Arab - Ain Al Arab --- (((250)))",
    "search_name_ar_short": "مخرج (((250)))",
    "search_name_ar": "مخرج - مركز عين العرب - عين العرب --- (((250)))",
    "closest_geonames_post_code": "C1986",
    "old_sa_name": "",
    "lat": 36.7698946,
    "lon": 38.37864597,
    "sa_loc_only": "FALSE"
  },
  {
    "id": 251,
    "search_name_en": "Maydan - Kork Kitan - Ain al Arab - Ain Al Arab --- (((251)))",
    "search_name_ar_short": "الميدان_كورك كيتان (((251)))",
    "search_name_ar": "الميدان_كورك كيتان - مركز عين العرب - عين العرب --- (((251)))",
    "closest_geonames_post_code": "C1953",
    "old_sa_name": "",
    "lat": 36.79995831,
    "lon": 38.28229128,
    "sa_loc_only": "FALSE"
  },
  {
    "id": 252,
    "search_name_en": "Mazraet Elamud - Ain al Arab - Ain Al Arab --- (((252)))",
    "search_name_ar_short": "مزرعة العامود (((252)))",
    "search_name_ar": "مزرعة العامود - مركز عين العرب - عين العرب --- (((252)))",
    "closest_geonames_post_code": "C1982",
    "old_sa_name": "",
    "lat": 36.891035,
    "lon": 38.30044055,
    "sa_loc_only": "FALSE"
  },
  {
    "id": 253,
    "search_name_en": "Minas - Ain al Arab - Ain Al Arab --- (((253)))",
    "search_name_ar_short": "ميناس (((253)))",
    "search_name_ar": "ميناس - مركز عين العرب - عين العرب --- (((253)))",
    "closest_geonames_post_code": "C6340",
    "old_sa_name": "",
    "lat": 36.87071752,
    "lon": 38.30360814,
    "sa_loc_only": "FALSE"
  },
  {
    "id": 254,
    "search_name_en": "Morshed Morshed Binar - Ain al Arab - Ain Al Arab --- (((254)))",
    "search_name_ar_short": "مرشد مرشد بينار (((254)))",
    "search_name_ar": "مرشد مرشد بينار - مركز عين العرب - عين العرب --- (((254)))",
    "closest_geonames_post_code": "C1987",
    "old_sa_name": "",
    "lat": 36.8751923,
    "lon": 38.3004157,
    "sa_loc_only": "FALSE"
  },
  {
    "id": 255,
    "search_name_en": "Nabaa - Korbinar - Ain al Arab - Ain Al Arab --- (((255)))",
    "search_name_ar_short": "النبعة_كوربينار (((255)))",
    "search_name_ar": "النبعة_كوربينار - مركز عين العرب - عين العرب --- (((255)))",
    "closest_geonames_post_code": "C1962",
    "old_sa_name": "",
    "lat": 36.82523869,
    "lon": 38.37921103,
    "sa_loc_only": "FALSE"
  },
  {
    "id": 256,
    "search_name_en": "Naf Karab - Karabnaf - Ain al Arab - Ain Al Arab --- (((256)))",
    "search_name_ar_short": "ناف كرب_كربناف (((256)))",
    "search_name_ar": "ناف كرب_كربناف - مركز عين العرب - عين العرب --- (((256)))",
    "closest_geonames_post_code": "C1988",
    "old_sa_name": "",
    "lat": 36.86062095,
    "lon": 38.49821075,
    "sa_loc_only": "FALSE"
  },
  {
    "id": 257,
    "search_name_en": "Natheriyeh - Koran - Ain al Arab - Ain Al Arab --- (((257)))",
    "search_name_ar_short": "الناظرية_كوران (((257)))",
    "search_name_ar": "الناظرية_كوران - مركز عين العرب - عين العرب --- (((257)))",
    "closest_geonames_post_code": "C1965",
    "old_sa_name": "",
    "lat": 36.73857202,
    "lon": 38.60539906,
    "sa_loc_only": "FALSE"
  },
  {
    "id": 258,
    "search_name_en": "Oruba - Kor Ali - Ain al Arab - Ain Al Arab --- (((258)))",
    "search_name_ar_short": "عروبة_كور علي (((258)))",
    "search_name_ar": "عروبة_كور علي - مركز عين العرب - عين العرب --- (((258)))",
    "closest_geonames_post_code": "C1956",
    "old_sa_name": "",
    "lat": 36.8905477,
    "lon": 38.14067277,
    "sa_loc_only": "FALSE"
  },
  {
    "id": 259,
    "search_name_en": "Qantarra - Qantaret Kikan - Ain al Arab - Ain Al Arab --- (((259)))",
    "search_name_ar_short": "القنطرة_قنطرة كيكان (((259)))",
    "search_name_ar": "القنطرة_قنطرة كيكان - مركز عين العرب - عين العرب --- (((259)))",
    "closest_geonames_post_code": "C1936",
    "old_sa_name": "",
    "lat": 36.83364249,
    "lon": 38.1948934,
    "sa_loc_only": "FALSE"
  },
  {
    "id": 260,
    "search_name_en": "Qantarte Beith Serri - Ain al Arab - Ain Al Arab --- (((260)))",
    "search_name_ar_short": "قنطرة بيت سري (((260)))",
    "search_name_ar": "قنطرة بيت سري - مركز عين العرب - عين العرب --- (((260)))",
    "closest_geonames_post_code": "C1983",
    "old_sa_name": "",
    "lat": 36.75127493,
    "lon": 38.45341968,
    "sa_loc_only": "FALSE"
  },
  {
    "id": 261,
    "search_name_en": "Qarruf - Ain al Arab - Ain Al Arab --- (((261)))",
    "search_name_ar_short": "قروف (((261)))",
    "search_name_ar": "قروف - مركز عين العرب - عين العرب --- (((261)))",
    "closest_geonames_post_code": "C1985",
    "old_sa_name": "",
    "lat": 36.82474311,
    "lon": 38.26306441,
    "sa_loc_only": "FALSE"
  },
  {
    "id": 262,
    "search_name_en": "Qola - Ain al Arab - Ain Al Arab --- (((262)))",
    "search_name_ar_short": "قولا (((262)))",
    "search_name_ar": "قولا - مركز عين العرب - عين العرب --- (((262)))",
    "closest_geonames_post_code": "C1990",
    "old_sa_name": "",
    "lat": 36.85767076,
    "lon": 38.20020241,
    "sa_loc_only": "FALSE"
  },
  {
    "id": 263,
    "search_name_en": "Sharan (Ain al Arab) - Ain al Arab - Ain Al Arab --- (((263)))",
    "search_name_ar_short": "شران (((263)))",
    "search_name_ar": "شران - مركز عين العرب - مركز عين العرب - عين العرب --- (((263)))",
    "closest_geonames_post_code": "C1940",
    "old_sa_name": "",
    "lat": 36.86606529,
    "lon": 38.42663322,
    "sa_loc_only": "FALSE"
  },
  {
    "id": 264,
    "search_name_en": "Shoruq - Holaqi - Ain al Arab - Ain Al Arab --- (((264)))",
    "search_name_ar_short": "الشروق_هولاقي (((264)))",
    "search_name_ar": "الشروق_هولاقي - مركز عين العرب - عين العرب --- (((264)))",
    "closest_geonames_post_code": "C1973",
    "old_sa_name": "",
    "lat": 36.7820758,
    "lon": 38.5360425,
    "sa_loc_only": "FALSE"
  },
  {
    "id": 265,
    "search_name_en": "Sus - Susan - Ain al Arab - Ain Al Arab --- (((265)))",
    "search_name_ar_short": "صوص_صوصان (((265)))",
    "search_name_ar": "صوص_صوصان - مركز عين العرب - عين العرب --- (((265)))",
    "closest_geonames_post_code": "C1980",
    "old_sa_name": "",
    "lat": 36.87857479,
    "lon": 38.21274688,
    "sa_loc_only": "FALSE"
  },
  {
    "id": 266,
    "search_name_en": "Tafsh - Tafsho - Ain al Arab - Ain Al Arab --- (((266)))",
    "search_name_ar_short": "طفش_طفشو (((266)))",
    "search_name_ar": "طفش_طفشو - مركز عين العرب - عين العرب --- (((266)))",
    "closest_geonames_post_code": "C1958",
    "old_sa_name": "",
    "lat": 36.77446798,
    "lon": 38.32286755,
    "sa_loc_only": "FALSE"
  },
  {
    "id": 267,
    "search_name_en": "Tal Ghazal (Ain al Arab) - Ain al Arab - Ain Al Arab --- (((267)))",
    "search_name_ar_short": "تل غزال (((267)))",
    "search_name_ar": "تل غزال - مركز عين العرب - مركز عين العرب - عين العرب --- (((267)))",
    "closest_geonames_post_code": "C1951",
    "old_sa_name": "",
    "lat": 36.79578614,
    "lon": 38.36486038,
    "sa_loc_only": "FALSE"
  },
  {
    "id": 268,
    "search_name_en": "Tal Hajib - Ain al Arab - Ain Al Arab --- (((268)))",
    "search_name_ar_short": "تل حاجب (((268)))",
    "search_name_ar": "تل حاجب - مركز عين العرب - عين العرب --- (((268)))",
    "closest_geonames_post_code": "C1949",
    "old_sa_name": "",
    "lat": 36.84971709,
    "lon": 38.43876967,
    "sa_loc_only": "FALSE"
  },
  {
    "id": 269,
    "search_name_en": "Thahireh - Bil Weiran - Ain al Arab - Ain Al Arab --- (((269)))",
    "search_name_ar_short": "ظهيرة_بيل ويران (((269)))",
    "search_name_ar": "ظهيرة_بيل ويران - مركز عين العرب - عين العرب --- (((269)))",
    "closest_geonames_post_code": "C1969",
    "old_sa_name": "",
    "lat": 36.73551186,
    "lon": 38.3440774,
    "sa_loc_only": "FALSE"
  },
  {
    "id": 270,
    "search_name_en": "Upper Beith Lehem - Etweiran - Ain al Arab - Ain Al Arab --- (((270)))",
    "search_name_ar_short": "بيت لحم فوقاني_إيتويران (((270)))",
    "search_name_ar": "بيت لحم فوقاني_إيتويران - مركز عين العرب - عين العرب --- (((270)))",
    "closest_geonames_post_code": "C1950",
    "old_sa_name": "",
    "lat": 36.79102268,
    "lon": 38.58300582,
    "sa_loc_only": "FALSE"
  },
  {
    "id": 271,
    "search_name_en": "Upper Jbeileh - Qorrat Quri - Ain al Arab - Ain Al Arab --- (((271)))",
    "search_name_ar_short": "جبيلة فوقاني_قرة قوري (((271)))",
    "search_name_ar": "جبيلة فوقاني_قرة قوري - مركز عين العرب - عين العرب --- (((271)))",
    "closest_geonames_post_code": "C1972",
    "old_sa_name": "",
    "lat": 36.857857,
    "lon": 38.16114772,
    "sa_loc_only": "FALSE"
  },
  {
    "id": 272,
    "search_name_en": "Upper Khaldiyeh - Upper Tahtak - Ain al Arab - Ain Al Arab --- (((272)))",
    "search_name_ar_short": "خالدية فوقاني_تحتك فوقاني (((272)))",
    "search_name_ar": "خالدية فوقاني_تحتك فوقاني - مركز عين العرب - عين العرب --- (((272)))",
    "closest_geonames_post_code": "C1939",
    "old_sa_name": "",
    "lat": 36.73360182,
    "lon": 38.52887747,
    "sa_loc_only": "FALSE"
  },
  {
    "id": 273,
    "search_name_en": "Upper Sift - Siftek - Ain al Arab - Ain Al Arab --- (((273)))",
    "search_name_ar_short": "سفت فوقاني_سفتك (((273)))",
    "search_name_ar": "سفت فوقاني_سفتك - مركز عين العرب - عين العرب --- (((273)))",
    "closest_geonames_post_code": "C1979",
    "old_sa_name": "",
    "lat": 36.90491633,
    "lon": 38.21556618,
    "sa_loc_only": "FALSE"
  },
  {
    "id": 274,
    "search_name_en": "Upper Tal Hajar - Ain al Arab - Ain Al Arab --- (((274)))",
    "search_name_ar_short": "تل حجر فوقاني (((274)))",
    "search_name_ar": "تل حجر فوقاني - مركز عين العرب - عين العرب --- (((274)))",
    "closest_geonames_post_code": "C1955",
    "old_sa_name": "",
    "lat": 36.76874944,
    "lon": 38.49008422,
    "sa_loc_only": "FALSE"
  },
  {
    "id": 275,
    "search_name_en": "Zarafet Zarafik - Ain al Arab - Ain Al Arab --- (((275)))",
    "search_name_ar_short": "زرافة_زرافيك (((275)))",
    "search_name_ar": "زرافة_زرافيك - مركز عين العرب - عين العرب --- (((275)))",
    "closest_geonames_post_code": "C1937",
    "old_sa_name": "",
    "lat": 36.78305873,
    "lon": 38.23409951,
    "sa_loc_only": "FALSE"
  },
  {
    "id": 276,
    "search_name_en": "Zobar - Zorabi - Ain al Arab - Ain Al Arab --- (((276)))",
    "search_name_ar_short": "زوبار_زورابي (((276)))",
    "search_name_ar": "زوبار_زورابي - مركز عين العرب - عين العرب --- (((276)))",
    "closest_geonames_post_code": "C1948",
    "old_sa_name": "",
    "lat": 36.90840484,
    "lon": 38.26095855,
    "sa_loc_only": "FALSE"
  },
  {
    "id": 277,
    "search_name_en": "Zogher - Ain al Arab - Ain Al Arab --- (((277)))",
    "search_name_ar_short": "زوغر (((277)))",
    "search_name_ar": "زوغر - مركز عين العرب - عين العرب --- (((277)))",
    "closest_geonames_post_code": "C1977",
    "old_sa_name": "",
    "lat": 36.70392176,
    "lon": 38.62437248,
    "sa_loc_only": "FALSE"
  },
  {
    "id": 278,
    "search_name_en": "Big Duwara - Jraqli - Lower Shyookh - Ain Al Arab --- (((278)))",
    "search_name_ar_short": "الدوارة الكبيرة_جارقلي (((278)))",
    "search_name_ar": "الدوارة الكبيرة_جارقلي - شيوخ تحتاني - عين العرب --- (((278)))",
    "closest_geonames_post_code": "C1998",
    "old_sa_name": "",
    "lat": 36.8579141,
    "lon": 38.09155489,
    "sa_loc_only": "FALSE"
  },